[
  {
    "lat": 34.13945,
    "lon": -117.97729,
    "facility": "City of Hope National Medical Center",
    "city": "Duarte",
    "state": "California",
    "country": "United States",
    "nct": "NCT04994717",
    "status": "RECRUITING",
    "site_status": "RECRUITING",
    "color": "#3498db",
    "title": "Blinatumomab Ph-neg ALL elderly [P3]",
    "conditions": [
      "Newly Diagnosed Philadelphia (Ph)-Negative B-cell Precursor Acute Lymphoblastic Leukemia (ALL)"
    ]
  },
  {
    "lat": 33.78779,
    "lon": -117.85311,
    "facility": "University of California Irvine",
    "city": "Orange",
    "state": "California",
    "country": "United States",
    "nct": "NCT04994717",
    "status": "RECRUITING",
    "site_status": "RECRUITING",
    "color": "#3498db",
    "title": "Blinatumomab Ph-neg ALL elderly [P3]",
    "conditions": [
      "Newly Diagnosed Philadelphia (Ph)-Negative B-cell Precursor Acute Lymphoblastic Leukemia (ALL)"
    ]
  },
  {
    "lat": 37.77493,
    "lon": -122.41942,
    "facility": "University of California San Francisco",
    "city": "San Francisco",
    "state": "California",
    "country": "United States",
    "nct": "NCT04994717",
    "status": "RECRUITING",
    "site_status": "RECRUITING",
    "color": "#3498db",
    "title": "Blinatumomab Ph-neg ALL elderly [P3]",
    "conditions": [
      "Newly Diagnosed Philadelphia (Ph)-Negative B-cell Precursor Acute Lymphoblastic Leukemia (ALL)"
    ]
  },
  {
    "lat": 28.53834,
    "lon": -81.37924,
    "facility": "Adventist Health System/Sunbelt, Inc d/b/a AdventHealth Orlando",
    "city": "Orlando",
    "state": "Florida",
    "country": "United States",
    "nct": "NCT04994717",
    "status": "TERMINATED",
    "site_status": "TERMINATED",
    "color": "#3498db",
    "title": "Blinatumomab Ph-neg ALL elderly [P3]",
    "conditions": [
      "Newly Diagnosed Philadelphia (Ph)-Negative B-cell Precursor Acute Lymphoblastic Leukemia (ALL)"
    ]
  },
  {
    "lat": 41.4995,
    "lon": -81.69541,
    "facility": "Cleveland Clinic Foundation",
    "city": "Cleveland",
    "state": "Ohio",
    "country": "United States",
    "nct": "NCT04994717",
    "status": "TERMINATED",
    "site_status": "TERMINATED",
    "color": "#3498db",
    "title": "Blinatumomab Ph-neg ALL elderly [P3]",
    "conditions": [
      "Newly Diagnosed Philadelphia (Ph)-Negative B-cell Precursor Acute Lymphoblastic Leukemia (ALL)"
    ]
  },
  {
    "lat": 34.85262,
    "lon": -82.39401,
    "facility": "Saint Francis Hospital, Inc",
    "city": "Greenville",
    "state": "South Carolina",
    "country": "United States",
    "nct": "NCT04994717",
    "status": "COMPLETED",
    "site_status": "COMPLETED",
    "color": "#3498db",
    "title": "Blinatumomab Ph-neg ALL elderly [P3]",
    "conditions": [
      "Newly Diagnosed Philadelphia (Ph)-Negative B-cell Precursor Acute Lymphoblastic Leukemia (ALL)"
    ]
  },
  {
    "lat": 29.76328,
    "lon": -95.36327,
    "facility": "University of Texas MD Anderson Cancer Center",
    "city": "Houston",
    "state": "Texas",
    "country": "United States",
    "nct": "NCT04994717",
    "status": "COMPLETED",
    "site_status": "COMPLETED",
    "color": "#3498db",
    "title": "Blinatumomab Ph-neg ALL elderly [P3]",
    "conditions": [
      "Newly Diagnosed Philadelphia (Ph)-Negative B-cell Precursor Acute Lymphoblastic Leukemia (ALL)"
    ]
  },
  {
    "lat": -35.34206,
    "lon": 149.10846,
    "facility": "Canberra Hospital",
    "city": "Garran",
    "state": "Australian Capital Territory",
    "country": "Australia",
    "nct": "NCT04994717",
    "status": "RECRUITING",
    "site_status": "RECRUITING",
    "color": "#3498db",
    "title": "Blinatumomab Ph-neg ALL elderly [P3]",
    "conditions": [
      "Newly Diagnosed Philadelphia (Ph)-Negative B-cell Precursor Acute Lymphoblastic Leukemia (ALL)"
    ]
  },
  {
    "lat": -33.88965,
    "lon": 151.17642,
    "facility": "Royal Prince Alfred Hospital",
    "city": "Camperdown",
    "state": "New South Wales",
    "country": "Australia",
    "nct": "NCT04994717",
    "status": "RECRUITING",
    "site_status": "RECRUITING",
    "color": "#3498db",
    "title": "Blinatumomab Ph-neg ALL elderly [P3]",
    "conditions": [
      "Newly Diagnosed Philadelphia (Ph)-Negative B-cell Precursor Acute Lymphoblastic Leukemia (ALL)"
    ]
  },
  {
    "lat": -33.91938,
    "lon": 150.92588,
    "facility": "Liverpool Hospital",
    "city": "Liverpool",
    "state": "New South Wales",
    "country": "Australia",
    "nct": "NCT04994717",
    "status": "RECRUITING",
    "site_status": "RECRUITING",
    "color": "#3498db",
    "title": "Blinatumomab Ph-neg ALL elderly [P3]",
    "conditions": [
      "Newly Diagnosed Philadelphia (Ph)-Negative B-cell Precursor Acute Lymphoblastic Leukemia (ALL)"
    ]
  },
  {
    "lat": -33.82344,
    "lon": 151.19836,
    "facility": "Royal North Shore Hospital",
    "city": "St Leonards",
    "state": "New South Wales",
    "country": "Australia",
    "nct": "NCT04994717",
    "status": "RECRUITING",
    "site_status": "RECRUITING",
    "color": "#3498db",
    "title": "Blinatumomab Ph-neg ALL elderly [P3]",
    "conditions": [
      "Newly Diagnosed Philadelphia (Ph)-Negative B-cell Precursor Acute Lymphoblastic Leukemia (ALL)"
    ]
  },
  {
    "lat": -33.80383,
    "lon": 150.98768,
    "facility": "Westmead Hospital",
    "city": "Westmead",
    "state": "New South Wales",
    "country": "Australia",
    "nct": "NCT04994717",
    "status": "TERMINATED",
    "site_status": "TERMINATED",
    "color": "#3498db",
    "title": "Blinatumomab Ph-neg ALL elderly [P3]",
    "conditions": [
      "Newly Diagnosed Philadelphia (Ph)-Negative B-cell Precursor Acute Lymphoblastic Leukemia (ALL)"
    ]
  },
  {
    "lat": -27.44453,
    "lon": 153.01852,
    "facility": "Royal Brisbane and Womens Hospital",
    "city": "Herston",
    "state": "Queensland",
    "country": "Australia",
    "nct": "NCT04994717",
    "status": "RECRUITING",
    "site_status": "RECRUITING",
    "color": "#3498db",
    "title": "Blinatumomab Ph-neg ALL elderly [P3]",
    "conditions": [
      "Newly Diagnosed Philadelphia (Ph)-Negative B-cell Precursor Acute Lymphoblastic Leukemia (ALL)"
    ]
  },
  {
    "lat": -27.48855,
    "lon": 153.03655,
    "facility": "Princess Alexandra Hospital",
    "city": "Woolloongabba",
    "state": "Queensland",
    "country": "Australia",
    "nct": "NCT04994717",
    "status": "RECRUITING",
    "site_status": "RECRUITING",
    "color": "#3498db",
    "title": "Blinatumomab Ph-neg ALL elderly [P3]",
    "conditions": [
      "Newly Diagnosed Philadelphia (Ph)-Negative B-cell Precursor Acute Lymphoblastic Leukemia (ALL)"
    ]
  },
  {
    "lat": -34.92866,
    "lon": 138.59863,
    "facility": "Royal Adelaide Hospital",
    "city": "Adelaide",
    "state": "South Australia",
    "country": "Australia",
    "nct": "NCT04994717",
    "status": "RECRUITING",
    "site_status": "RECRUITING",
    "color": "#3498db",
    "title": "Blinatumomab Ph-neg ALL elderly [P3]",
    "conditions": [
      "Newly Diagnosed Philadelphia (Ph)-Negative B-cell Precursor Acute Lymphoblastic Leukemia (ALL)"
    ]
  },
  {
    "lat": -37.91667,
    "lon": 145.11667,
    "facility": "Monash Medical Centre",
    "city": "Clayton",
    "state": "Victoria",
    "country": "Australia",
    "nct": "NCT04994717",
    "status": "COMPLETED",
    "site_status": "COMPLETED",
    "color": "#3498db",
    "title": "Blinatumomab Ph-neg ALL elderly [P3]",
    "conditions": [
      "Newly Diagnosed Philadelphia (Ph)-Negative B-cell Precursor Acute Lymphoblastic Leukemia (ALL)"
    ]
  },
  {
    "lat": -37.75,
    "lon": 145.06667,
    "facility": "Austin Health, Austin Hospital",
    "city": "Heidelberg",
    "state": "Victoria",
    "country": "Australia",
    "nct": "NCT04994717",
    "status": "RECRUITING",
    "site_status": "RECRUITING",
    "color": "#3498db",
    "title": "Blinatumomab Ph-neg ALL elderly [P3]",
    "conditions": [
      "Newly Diagnosed Philadelphia (Ph)-Negative B-cell Precursor Acute Lymphoblastic Leukemia (ALL)"
    ]
  },
  {
    "lat": -37.814,
    "lon": 144.96332,
    "facility": "Peter MacCallum Cancer Centre",
    "city": "Melbourne",
    "state": "Victoria",
    "country": "Australia",
    "nct": "NCT04994717",
    "status": "RECRUITING",
    "site_status": "RECRUITING",
    "color": "#3498db",
    "title": "Blinatumomab Ph-neg ALL elderly [P3]",
    "conditions": [
      "Newly Diagnosed Philadelphia (Ph)-Negative B-cell Precursor Acute Lymphoblastic Leukemia (ALL)"
    ]
  },
  {
    "lat": -37.814,
    "lon": 144.96332,
    "facility": "The Alfred Hospital",
    "city": "Melbourne",
    "state": "Victoria",
    "country": "Australia",
    "nct": "NCT04994717",
    "status": "RECRUITING",
    "site_status": "RECRUITING",
    "color": "#3498db",
    "title": "Blinatumomab Ph-neg ALL elderly [P3]",
    "conditions": [
      "Newly Diagnosed Philadelphia (Ph)-Negative B-cell Precursor Acute Lymphoblastic Leukemia (ALL)"
    ]
  },
  {
    "lat": -32.06987,
    "lon": 115.83757,
    "facility": "Fiona Stanley Hospital",
    "city": "Murdoch",
    "state": "Western Australia",
    "country": "Australia",
    "nct": "NCT04994717",
    "status": "RECRUITING",
    "site_status": "RECRUITING",
    "color": "#3498db",
    "title": "Blinatumomab Ph-neg ALL elderly [P3]",
    "conditions": [
      "Newly Diagnosed Philadelphia (Ph)-Negative B-cell Precursor Acute Lymphoblastic Leukemia (ALL)"
    ]
  },
  {
    "lat": 47.06733,
    "lon": 15.44197,
    "facility": "Medizinische Universitaet Graz",
    "city": "Graz",
    "country": "Austria",
    "nct": "NCT04994717",
    "status": "RECRUITING",
    "site_status": "RECRUITING",
    "color": "#3498db",
    "title": "Blinatumomab Ph-neg ALL elderly [P3]",
    "conditions": [
      "Newly Diagnosed Philadelphia (Ph)-Negative B-cell Precursor Acute Lymphoblastic Leukemia (ALL)"
    ]
  },
  {
    "lat": 47.26266,
    "lon": 11.39454,
    "facility": "Medizinische Universitaet Innsbruck",
    "city": "Innsbruck",
    "country": "Austria",
    "nct": "NCT04994717",
    "status": "COMPLETED",
    "site_status": "COMPLETED",
    "color": "#3498db",
    "title": "Blinatumomab Ph-neg ALL elderly [P3]",
    "conditions": [
      "Newly Diagnosed Philadelphia (Ph)-Negative B-cell Precursor Acute Lymphoblastic Leukemia (ALL)"
    ]
  },
  {
    "lat": 48.30639,
    "lon": 14.28611,
    "facility": "Ordensklinikum Linz Elisabethinen",
    "city": "Linz",
    "country": "Austria",
    "nct": "NCT04994717",
    "status": "COMPLETED",
    "site_status": "COMPLETED",
    "color": "#3498db",
    "title": "Blinatumomab Ph-neg ALL elderly [P3]",
    "conditions": [
      "Newly Diagnosed Philadelphia (Ph)-Negative B-cell Precursor Acute Lymphoblastic Leukemia (ALL)"
    ]
  },
  {
    "lat": 48.20849,
    "lon": 16.37208,
    "facility": "Hanusch Krankenhaus",
    "city": "Vienna",
    "country": "Austria",
    "nct": "NCT04994717",
    "status": "COMPLETED",
    "site_status": "COMPLETED",
    "color": "#3498db",
    "title": "Blinatumomab Ph-neg ALL elderly [P3]",
    "conditions": [
      "Newly Diagnosed Philadelphia (Ph)-Negative B-cell Precursor Acute Lymphoblastic Leukemia (ALL)"
    ]
  },
  {
    "lat": 50.83619,
    "lon": 4.31454,
    "facility": "Institut Jules Bordet",
    "city": "Anderlecht",
    "country": "Belgium",
    "nct": "NCT04994717",
    "status": "RECRUITING",
    "site_status": "RECRUITING",
    "color": "#3498db",
    "title": "Blinatumomab Ph-neg ALL elderly [P3]",
    "conditions": [
      "Newly Diagnosed Philadelphia (Ph)-Negative B-cell Precursor Acute Lymphoblastic Leukemia (ALL)"
    ]
  },
  {
    "lat": 51.20892,
    "lon": 3.22424,
    "facility": "AZ Sint-Jan Brugge-Oostende AV",
    "city": "Bruges",
    "country": "Belgium",
    "nct": "NCT04994717",
    "status": "RECRUITING",
    "site_status": "RECRUITING",
    "color": "#3498db",
    "title": "Blinatumomab Ph-neg ALL elderly [P3]",
    "conditions": [
      "Newly Diagnosed Philadelphia (Ph)-Negative B-cell Precursor Acute Lymphoblastic Leukemia (ALL)"
    ]
  },
  {
    "lat": 50.85045,
    "lon": 4.34878,
    "facility": "Universite Catholique de Louvain Cliniques Universitaires Saint Luc",
    "city": "Brussels",
    "country": "Belgium",
    "nct": "NCT04994717",
    "status": "TERMINATED",
    "site_status": "TERMINATED",
    "color": "#3498db",
    "title": "Blinatumomab Ph-neg ALL elderly [P3]",
    "conditions": [
      "Newly Diagnosed Philadelphia (Ph)-Negative B-cell Precursor Acute Lymphoblastic Leukemia (ALL)"
    ]
  },
  {
    "lat": 51.15662,
    "lon": 4.44504,
    "facility": "Universitair Ziekenhuis Antwerpen",
    "city": "Edegem",
    "country": "Belgium",
    "nct": "NCT04994717",
    "status": "RECRUITING",
    "site_status": "RECRUITING",
    "color": "#3498db",
    "title": "Blinatumomab Ph-neg ALL elderly [P3]",
    "conditions": [
      "Newly Diagnosed Philadelphia (Ph)-Negative B-cell Precursor Acute Lymphoblastic Leukemia (ALL)"
    ]
  },
  {
    "lat": 51.05,
    "lon": 3.71667,
    "facility": "Universitair Ziekenhuis Gent",
    "city": "Ghent",
    "country": "Belgium",
    "nct": "NCT04994717",
    "status": "RECRUITING",
    "site_status": "RECRUITING",
    "color": "#3498db",
    "title": "Blinatumomab Ph-neg ALL elderly [P3]",
    "conditions": [
      "Newly Diagnosed Philadelphia (Ph)-Negative B-cell Precursor Acute Lymphoblastic Leukemia (ALL)"
    ]
  },
  {
    "lat": 50.93106,
    "lon": 5.33781,
    "facility": "Jessa Ziekenhuis - Campus Virga Jesse",
    "city": "Hasselt",
    "country": "Belgium",
    "nct": "NCT04994717",
    "status": "RECRUITING",
    "site_status": "RECRUITING",
    "color": "#3498db",
    "title": "Blinatumomab Ph-neg ALL elderly [P3]",
    "conditions": [
      "Newly Diagnosed Philadelphia (Ph)-Negative B-cell Precursor Acute Lymphoblastic Leukemia (ALL)"
    ]
  },
  {
    "lat": 50.63373,
    "lon": 5.56749,
    "facility": "Centre Hospitalier Universitaire de Liege - Sart Tilman",
    "city": "Li\u00e8ge",
    "country": "Belgium",
    "nct": "NCT04994717",
    "status": "RECRUITING",
    "site_status": "RECRUITING",
    "color": "#3498db",
    "title": "Blinatumomab Ph-neg ALL elderly [P3]",
    "conditions": [
      "Newly Diagnosed Philadelphia (Ph)-Negative B-cell Precursor Acute Lymphoblastic Leukemia (ALL)"
    ]
  },
  {
    "lat": 50.94653,
    "lon": 3.12269,
    "facility": "AZ Delta Campus Rumbeke",
    "city": "Roeselare",
    "country": "Belgium",
    "nct": "NCT04994717",
    "status": "RECRUITING",
    "site_status": "RECRUITING",
    "color": "#3498db",
    "title": "Blinatumomab Ph-neg ALL elderly [P3]",
    "conditions": [
      "Newly Diagnosed Philadelphia (Ph)-Negative B-cell Precursor Acute Lymphoblastic Leukemia (ALL)"
    ]
  },
  {
    "lat": 50.3279,
    "lon": 4.88059,
    "facility": "Centre Hospitalier Universitaire-Universite Catholique de Louvain Namur-Site Godinne",
    "city": "Yvoir",
    "country": "Belgium",
    "nct": "NCT04994717",
    "status": "RECRUITING",
    "site_status": "RECRUITING",
    "color": "#3498db",
    "title": "Blinatumomab Ph-neg ALL elderly [P3]",
    "conditions": [
      "Newly Diagnosed Philadelphia (Ph)-Negative B-cell Precursor Acute Lymphoblastic Leukemia (ALL)"
    ]
  },
  {
    "lat": -15.77972,
    "lon": -47.92972,
    "facility": "Igesd Instituto de Gestao Estrategica da Saude do Distrito Federal",
    "city": "Bras\u00edlia",
    "state": "Federal District",
    "country": "Brazil",
    "nct": "NCT04994717",
    "status": "RECRUITING",
    "site_status": "RECRUITING",
    "color": "#3498db",
    "title": "Blinatumomab Ph-neg ALL elderly [P3]",
    "conditions": [
      "Newly Diagnosed Philadelphia (Ph)-Negative B-cell Precursor Acute Lymphoblastic Leukemia (ALL)"
    ]
  },
  {
    "lat": -16.67861,
    "lon": -49.25389,
    "facility": "Hospital das Clinicas da Universidade Federal de Goias",
    "city": "Goi\u00e2nia",
    "state": "Goi\u00e1s",
    "country": "Brazil",
    "nct": "NCT04994717",
    "status": "RECRUITING",
    "site_status": "RECRUITING",
    "color": "#3498db",
    "title": "Blinatumomab Ph-neg ALL elderly [P3]",
    "conditions": [
      "Newly Diagnosed Philadelphia (Ph)-Negative B-cell Precursor Acute Lymphoblastic Leukemia (ALL)"
    ]
  },
  {
    "lat": -30.03283,
    "lon": -51.23019,
    "facility": "Hospital de Clinicas de Porto Alegre",
    "city": "Porto Alegre",
    "state": "Rio Grande do Sul",
    "country": "Brazil",
    "nct": "NCT04994717",
    "status": "RECRUITING",
    "site_status": "RECRUITING",
    "color": "#3498db",
    "title": "Blinatumomab Ph-neg ALL elderly [P3]",
    "conditions": [
      "Newly Diagnosed Philadelphia (Ph)-Negative B-cell Precursor Acute Lymphoblastic Leukemia (ALL)"
    ]
  },
  {
    "lat": -22.29639,
    "lon": -48.55778,
    "facility": "Fundacao Amaral Carvalho",
    "city": "Ja\u00fa",
    "state": "S\u00e3o Paulo",
    "country": "Brazil",
    "nct": "NCT04994717",
    "status": "RECRUITING",
    "site_status": "RECRUITING",
    "color": "#3498db",
    "title": "Blinatumomab Ph-neg ALL elderly [P3]",
    "conditions": [
      "Newly Diagnosed Philadelphia (Ph)-Negative B-cell Precursor Acute Lymphoblastic Leukemia (ALL)"
    ]
  },
  {
    "lat": -21.1775,
    "lon": -47.81028,
    "facility": "Hosp Clin Fac Med Ribeirao Preto Usp",
    "city": "Ribeir\u00e3o Preto",
    "state": "S\u00e3o Paulo",
    "country": "Brazil",
    "nct": "NCT04994717",
    "status": "RECRUITING",
    "site_status": "RECRUITING",
    "color": "#3498db",
    "title": "Blinatumomab Ph-neg ALL elderly [P3]",
    "conditions": [
      "Newly Diagnosed Philadelphia (Ph)-Negative B-cell Precursor Acute Lymphoblastic Leukemia (ALL)"
    ]
  },
  {
    "lat": -22.90642,
    "lon": -43.18223,
    "facility": "Hemorio",
    "city": "Rio de Janeiro",
    "country": "Brazil",
    "nct": "NCT04994717",
    "status": "RECRUITING",
    "site_status": "RECRUITING",
    "color": "#3498db",
    "title": "Blinatumomab Ph-neg ALL elderly [P3]",
    "conditions": [
      "Newly Diagnosed Philadelphia (Ph)-Negative B-cell Precursor Acute Lymphoblastic Leukemia (ALL)"
    ]
  },
  {
    "lat": -23.5475,
    "lon": -46.63611,
    "facility": "Instituto Cancer Sao Paulo Icesp",
    "city": "S\u00e3o Paulo",
    "country": "Brazil",
    "nct": "NCT04994717",
    "status": "RECRUITING",
    "site_status": "RECRUITING",
    "color": "#3498db",
    "title": "Blinatumomab Ph-neg ALL elderly [P3]",
    "conditions": [
      "Newly Diagnosed Philadelphia (Ph)-Negative B-cell Precursor Acute Lymphoblastic Leukemia (ALL)"
    ]
  },
  {
    "lat": 42.15387,
    "lon": 24.75001,
    "facility": "University Multiprofile Hospital for Active Treatment Sveti Georgi EAD",
    "city": "Plovdiv",
    "country": "Bulgaria",
    "nct": "NCT04994717",
    "status": "RECRUITING",
    "site_status": "RECRUITING",
    "color": "#3498db",
    "title": "Blinatumomab Ph-neg ALL elderly [P3]",
    "conditions": [
      "Newly Diagnosed Philadelphia (Ph)-Negative B-cell Precursor Acute Lymphoblastic Leukemia (ALL)"
    ]
  },
  {
    "lat": 42.69751,
    "lon": 23.32415,
    "facility": "Specialized Hospital for Active Treatment of Hematology Diseases EAD",
    "city": "Sofia",
    "country": "Bulgaria",
    "nct": "NCT04994717",
    "status": "TERMINATED",
    "site_status": "TERMINATED",
    "color": "#3498db",
    "title": "Blinatumomab Ph-neg ALL elderly [P3]",
    "conditions": [
      "Newly Diagnosed Philadelphia (Ph)-Negative B-cell Precursor Acute Lymphoblastic Leukemia (ALL)"
    ]
  },
  {
    "lat": 51.05011,
    "lon": -114.08529,
    "facility": "Arthur J E Child Comprehensive Cancer Centre",
    "city": "Calgary",
    "state": "Alberta",
    "country": "Canada",
    "nct": "NCT04994717",
    "status": "RECRUITING",
    "site_status": "RECRUITING",
    "color": "#3498db",
    "title": "Blinatumomab Ph-neg ALL elderly [P3]",
    "conditions": [
      "Newly Diagnosed Philadelphia (Ph)-Negative B-cell Precursor Acute Lymphoblastic Leukemia (ALL)"
    ]
  },
  {
    "lat": 49.24966,
    "lon": -123.11934,
    "facility": "Vancouver General Hospital, Gordon and Leslie Diamond Health Care Centre",
    "city": "Vancouver",
    "state": "British Columbia",
    "country": "Canada",
    "nct": "NCT04994717",
    "status": "RECRUITING",
    "site_status": "RECRUITING",
    "color": "#3498db",
    "title": "Blinatumomab Ph-neg ALL elderly [P3]",
    "conditions": [
      "Newly Diagnosed Philadelphia (Ph)-Negative B-cell Precursor Acute Lymphoblastic Leukemia (ALL)"
    ]
  },
  {
    "lat": 49.8844,
    "lon": -97.14704,
    "facility": "Cancer Care Manitoba",
    "city": "Winnipeg",
    "state": "Manitoba",
    "country": "Canada",
    "nct": "NCT04994717",
    "status": "RECRUITING",
    "site_status": "RECRUITING",
    "color": "#3498db",
    "title": "Blinatumomab Ph-neg ALL elderly [P3]",
    "conditions": [
      "Newly Diagnosed Philadelphia (Ph)-Negative B-cell Precursor Acute Lymphoblastic Leukemia (ALL)"
    ]
  },
  {
    "lat": 44.64269,
    "lon": -63.57688,
    "facility": "Queen Elizabeth II, Health Sciences Centre",
    "city": "Halifax",
    "state": "Nova Scotia",
    "country": "Canada",
    "nct": "NCT04994717",
    "status": "RECRUITING",
    "site_status": "RECRUITING",
    "color": "#3498db",
    "title": "Blinatumomab Ph-neg ALL elderly [P3]",
    "conditions": [
      "Newly Diagnosed Philadelphia (Ph)-Negative B-cell Precursor Acute Lymphoblastic Leukemia (ALL)"
    ]
  },
  {
    "lat": 43.25011,
    "lon": -79.84963,
    "facility": "Hamilton Health Sciences - Juravinski Hospital and Cancer Centre",
    "city": "Hamilton",
    "state": "Ontario",
    "country": "Canada",
    "nct": "NCT04994717",
    "status": "RECRUITING",
    "site_status": "RECRUITING",
    "color": "#3498db",
    "title": "Blinatumomab Ph-neg ALL elderly [P3]",
    "conditions": [
      "Newly Diagnosed Philadelphia (Ph)-Negative B-cell Precursor Acute Lymphoblastic Leukemia (ALL)"
    ]
  },
  {
    "lat": 45.41117,
    "lon": -75.69812,
    "facility": "The Ottawa Hospital Cancer Centre",
    "city": "Ottawa",
    "state": "Ontario",
    "country": "Canada",
    "nct": "NCT04994717",
    "status": "RECRUITING",
    "site_status": "RECRUITING",
    "color": "#3498db",
    "title": "Blinatumomab Ph-neg ALL elderly [P3]",
    "conditions": [
      "Newly Diagnosed Philadelphia (Ph)-Negative B-cell Precursor Acute Lymphoblastic Leukemia (ALL)"
    ]
  },
  {
    "lat": 43.70643,
    "lon": -79.39864,
    "facility": "Princess Margaret Cancer Centre",
    "city": "Toronto",
    "state": "Ontario",
    "country": "Canada",
    "nct": "NCT04994717",
    "status": "RECRUITING",
    "site_status": "RECRUITING",
    "color": "#3498db",
    "title": "Blinatumomab Ph-neg ALL elderly [P3]",
    "conditions": [
      "Newly Diagnosed Philadelphia (Ph)-Negative B-cell Precursor Acute Lymphoblastic Leukemia (ALL)"
    ]
  },
  {
    "lat": 45.50884,
    "lon": -73.58781,
    "facility": "CEMTL Hopital Maisonneuve Rosemont",
    "city": "Montreal",
    "state": "Quebec",
    "country": "Canada",
    "nct": "NCT04994717",
    "status": "RECRUITING",
    "site_status": "RECRUITING",
    "color": "#3498db",
    "title": "Blinatumomab Ph-neg ALL elderly [P3]",
    "conditions": [
      "Newly Diagnosed Philadelphia (Ph)-Negative B-cell Precursor Acute Lymphoblastic Leukemia (ALL)"
    ]
  },
  {
    "lat": -33.45694,
    "lon": -70.64827,
    "facility": "Fundacion Arturo Lopez Perez",
    "city": "Santiago",
    "country": "Chile",
    "nct": "NCT04994717",
    "status": "RECRUITING",
    "site_status": "RECRUITING",
    "color": "#3498db",
    "title": "Blinatumomab Ph-neg ALL elderly [P3]",
    "conditions": [
      "Newly Diagnosed Philadelphia (Ph)-Negative B-cell Precursor Acute Lymphoblastic Leukemia (ALL)"
    ]
  },
  {
    "lat": -33.45694,
    "lon": -70.64827,
    "facility": "Inmunocel",
    "city": "Santiago",
    "country": "Chile",
    "nct": "NCT04994717",
    "status": "RECRUITING",
    "site_status": "RECRUITING",
    "color": "#3498db",
    "title": "Blinatumomab Ph-neg ALL elderly [P3]",
    "conditions": [
      "Newly Diagnosed Philadelphia (Ph)-Negative B-cell Precursor Acute Lymphoblastic Leukemia (ALL)"
    ]
  },
  {
    "lat": -33.45694,
    "lon": -70.64827,
    "facility": "Clinica Alemana de Santiago",
    "city": "Santiago",
    "country": "Chile",
    "nct": "NCT04994717",
    "status": "RECRUITING",
    "site_status": "RECRUITING",
    "color": "#3498db",
    "title": "Blinatumomab Ph-neg ALL elderly [P3]",
    "conditions": [
      "Newly Diagnosed Philadelphia (Ph)-Negative B-cell Precursor Acute Lymphoblastic Leukemia (ALL)"
    ]
  },
  {
    "lat": 49.19522,
    "lon": 16.60796,
    "facility": "Fakultni nemocnice Brno",
    "city": "Brno",
    "country": "Czechia",
    "nct": "NCT04994717",
    "status": "RECRUITING",
    "site_status": "RECRUITING",
    "color": "#3498db",
    "title": "Blinatumomab Ph-neg ALL elderly [P3]",
    "conditions": [
      "Newly Diagnosed Philadelphia (Ph)-Negative B-cell Precursor Acute Lymphoblastic Leukemia (ALL)"
    ]
  },
  {
    "lat": 50.20923,
    "lon": 15.83277,
    "facility": "Fakultni nemocnice Hradec Kralove",
    "city": "Hradec Kr\u00e1lov\u00e9",
    "country": "Czechia",
    "nct": "NCT04994717",
    "status": "RECRUITING",
    "site_status": "RECRUITING",
    "color": "#3498db",
    "title": "Blinatumomab Ph-neg ALL elderly [P3]",
    "conditions": [
      "Newly Diagnosed Philadelphia (Ph)-Negative B-cell Precursor Acute Lymphoblastic Leukemia (ALL)"
    ]
  },
  {
    "lat": 50.08804,
    "lon": 14.42076,
    "facility": "Ustav hematologie a krevni transfuze",
    "city": "Prague",
    "country": "Czechia",
    "nct": "NCT04994717",
    "status": "RECRUITING",
    "site_status": "RECRUITING",
    "color": "#3498db",
    "title": "Blinatumomab Ph-neg ALL elderly [P3]",
    "conditions": [
      "Newly Diagnosed Philadelphia (Ph)-Negative B-cell Precursor Acute Lymphoblastic Leukemia (ALL)"
    ]
  },
  {
    "lat": 57.048,
    "lon": 9.9187,
    "facility": "Aalborg Universitetshospital",
    "city": "Aalborg",
    "country": "Denmark",
    "nct": "NCT04994717",
    "status": "RECRUITING",
    "site_status": "RECRUITING",
    "color": "#3498db",
    "title": "Blinatumomab Ph-neg ALL elderly [P3]",
    "conditions": [
      "Newly Diagnosed Philadelphia (Ph)-Negative B-cell Precursor Acute Lymphoblastic Leukemia (ALL)"
    ]
  },
  {
    "lat": 56.20367,
    "lon": 10.17317,
    "facility": "Aarhus Universitetshospital",
    "city": "Aarhus N",
    "country": "Denmark",
    "nct": "NCT04994717",
    "status": "RECRUITING",
    "site_status": "RECRUITING",
    "color": "#3498db",
    "title": "Blinatumomab Ph-neg ALL elderly [P3]",
    "conditions": [
      "Newly Diagnosed Philadelphia (Ph)-Negative B-cell Precursor Acute Lymphoblastic Leukemia (ALL)"
    ]
  },
  {
    "lat": 55.70968,
    "lon": 12.56862,
    "facility": "Rigshospitalet",
    "city": "K\u00f8benhavn \u00d8",
    "country": "Denmark",
    "nct": "NCT04994717",
    "status": "RECRUITING",
    "site_status": "RECRUITING",
    "color": "#3498db",
    "title": "Blinatumomab Ph-neg ALL elderly [P3]",
    "conditions": [
      "Newly Diagnosed Philadelphia (Ph)-Negative B-cell Precursor Acute Lymphoblastic Leukemia (ALL)"
    ]
  },
  {
    "lat": 55.39594,
    "lon": 10.38831,
    "facility": "Odense Universitetshospital",
    "city": "Odense",
    "country": "Denmark",
    "nct": "NCT04994717",
    "status": "RECRUITING",
    "site_status": "RECRUITING",
    "color": "#3498db",
    "title": "Blinatumomab Ph-neg ALL elderly [P3]",
    "conditions": [
      "Newly Diagnosed Philadelphia (Ph)-Negative B-cell Precursor Acute Lymphoblastic Leukemia (ALL)"
    ]
  },
  {
    "lat": 59.43696,
    "lon": 24.75353,
    "facility": "North Estonia Medical Centre",
    "city": "Tallinn",
    "country": "Estonia",
    "nct": "NCT04994717",
    "status": "RECRUITING",
    "site_status": "RECRUITING",
    "color": "#3498db",
    "title": "Blinatumomab Ph-neg ALL elderly [P3]",
    "conditions": [
      "Newly Diagnosed Philadelphia (Ph)-Negative B-cell Precursor Acute Lymphoblastic Leukemia (ALL)"
    ]
  },
  {
    "lat": 58.38062,
    "lon": 26.72509,
    "facility": "Tartu University Hospital",
    "city": "Tartu",
    "country": "Estonia",
    "nct": "NCT04994717",
    "status": "RECRUITING",
    "site_status": "RECRUITING",
    "color": "#3498db",
    "title": "Blinatumomab Ph-neg ALL elderly [P3]",
    "conditions": [
      "Newly Diagnosed Philadelphia (Ph)-Negative B-cell Precursor Acute Lymphoblastic Leukemia (ALL)"
    ]
  },
  {
    "lat": 60.16952,
    "lon": 24.93545,
    "facility": "Helsinki University Hospital",
    "city": "Helsinki",
    "country": "Finland",
    "nct": "NCT04994717",
    "status": "RECRUITING",
    "site_status": "RECRUITING",
    "color": "#3498db",
    "title": "Blinatumomab Ph-neg ALL elderly [P3]",
    "conditions": [
      "Newly Diagnosed Philadelphia (Ph)-Negative B-cell Precursor Acute Lymphoblastic Leukemia (ALL)"
    ]
  },
  {
    "lat": 60.45148,
    "lon": 22.26869,
    "facility": "Turku University Hospital",
    "city": "Turku",
    "country": "Finland",
    "nct": "NCT04994717",
    "status": "RECRUITING",
    "site_status": "RECRUITING",
    "color": "#3498db",
    "title": "Blinatumomab Ph-neg ALL elderly [P3]",
    "conditions": [
      "Newly Diagnosed Philadelphia (Ph)-Negative B-cell Precursor Acute Lymphoblastic Leukemia (ALL)"
    ]
  },
  {
    "lat": 48.79266,
    "lon": 2.46569,
    "facility": "Hopital Henri Mondor",
    "city": "Cr\u00e9teil",
    "country": "France",
    "nct": "NCT04994717",
    "status": "RECRUITING",
    "site_status": "RECRUITING",
    "color": "#3498db",
    "title": "Blinatumomab Ph-neg ALL elderly [P3]",
    "conditions": [
      "Newly Diagnosed Philadelphia (Ph)-Negative B-cell Precursor Acute Lymphoblastic Leukemia (ALL)"
    ]
  },
  {
    "lat": 47.31344,
    "lon": 5.01391,
    "facility": "Centre Hospitalier Universitaire de Dijon - Hopital du Bocage",
    "city": "Dijon",
    "country": "France",
    "nct": "NCT04994717",
    "status": "RECRUITING",
    "site_status": "RECRUITING",
    "color": "#3498db",
    "title": "Blinatumomab Ph-neg ALL elderly [P3]",
    "conditions": [
      "Newly Diagnosed Philadelphia (Ph)-Negative B-cell Precursor Acute Lymphoblastic Leukemia (ALL)"
    ]
  },
  {
    "lat": 48.8222,
    "lon": 2.12213,
    "facility": "Centre Hospitalier de Versailles - Hopital Andre Mignot",
    "city": "Le Chesnay",
    "country": "France",
    "nct": "NCT04994717",
    "status": "RECRUITING",
    "site_status": "RECRUITING",
    "color": "#3498db",
    "title": "Blinatumomab Ph-neg ALL elderly [P3]",
    "conditions": [
      "Newly Diagnosed Philadelphia (Ph)-Negative B-cell Precursor Acute Lymphoblastic Leukemia (ALL)"
    ]
  },
  {
    "lat": 50.63391,
    "lon": 3.05512,
    "facility": "Centre Hospitalier Regional Universitaire de Lille - Hopital Claude Huriez",
    "city": "Lille",
    "country": "France",
    "nct": "NCT04994717",
    "status": "RECRUITING",
    "site_status": "RECRUITING",
    "color": "#3498db",
    "title": "Blinatumomab Ph-neg ALL elderly [P3]",
    "conditions": [
      "Newly Diagnosed Philadelphia (Ph)-Negative B-cell Precursor Acute Lymphoblastic Leukemia (ALL)"
    ]
  },
  {
    "lat": 43.29695,
    "lon": 5.38107,
    "facility": "Institut Paoli Calmettes",
    "city": "Marseille",
    "country": "France",
    "nct": "NCT04994717",
    "status": "RECRUITING",
    "site_status": "RECRUITING",
    "color": "#3498db",
    "title": "Blinatumomab Ph-neg ALL elderly [P3]",
    "conditions": [
      "Newly Diagnosed Philadelphia (Ph)-Negative B-cell Precursor Acute Lymphoblastic Leukemia (ALL)"
    ]
  },
  {
    "lat": 47.21725,
    "lon": -1.55336,
    "facility": "Centre Hospitalier Universitaire de Nantes - Hopital Hotel Dieu",
    "city": "Nantes",
    "country": "France",
    "nct": "NCT04994717",
    "status": "RECRUITING",
    "site_status": "RECRUITING",
    "color": "#3498db",
    "title": "Blinatumomab Ph-neg ALL elderly [P3]",
    "conditions": [
      "Newly Diagnosed Philadelphia (Ph)-Negative B-cell Precursor Acute Lymphoblastic Leukemia (ALL)"
    ]
  },
  {
    "lat": 43.70313,
    "lon": 7.26608,
    "facility": "Centre Hospitalier Universitaire Archet 2",
    "city": "Nice",
    "country": "France",
    "nct": "NCT04994717",
    "status": "RECRUITING",
    "site_status": "RECRUITING",
    "color": "#3498db",
    "title": "Blinatumomab Ph-neg ALL elderly [P3]",
    "conditions": [
      "Newly Diagnosed Philadelphia (Ph)-Negative B-cell Precursor Acute Lymphoblastic Leukemia (ALL)"
    ]
  },
  {
    "lat": 48.85341,
    "lon": 2.3488,
    "facility": "Hopital Saint Louis",
    "city": "Paris",
    "country": "France",
    "nct": "NCT04994717",
    "status": "RECRUITING",
    "site_status": "RECRUITING",
    "color": "#3498db",
    "title": "Blinatumomab Ph-neg ALL elderly [P3]",
    "conditions": [
      "Newly Diagnosed Philadelphia (Ph)-Negative B-cell Precursor Acute Lymphoblastic Leukemia (ALL)"
    ]
  },
  {
    "lat": 48.85341,
    "lon": 2.3488,
    "facility": "Hopital Saint Antoine",
    "city": "Paris",
    "country": "France",
    "nct": "NCT04994717",
    "status": "RECRUITING",
    "site_status": "RECRUITING",
    "color": "#3498db",
    "title": "Blinatumomab Ph-neg ALL elderly [P3]",
    "conditions": [
      "Newly Diagnosed Philadelphia (Ph)-Negative B-cell Precursor Acute Lymphoblastic Leukemia (ALL)"
    ]
  },
  {
    "lat": 44.80565,
    "lon": -0.6324,
    "facility": "Centre Hospitalier Universitaire de Bordeaux - Hopital Haut Leveque",
    "city": "Pessac",
    "country": "France",
    "nct": "NCT04994717",
    "status": "RECRUITING",
    "site_status": "RECRUITING",
    "color": "#3498db",
    "title": "Blinatumomab Ph-neg ALL elderly [P3]",
    "conditions": [
      "Newly Diagnosed Philadelphia (Ph)-Negative B-cell Precursor Acute Lymphoblastic Leukemia (ALL)"
    ]
  },
  {
    "lat": 45.70359,
    "lon": 4.82424,
    "facility": "Hopital Lyon Sud",
    "city": "Pierre-B\u00e9nite",
    "country": "France",
    "nct": "NCT04994717",
    "status": "RECRUITING",
    "site_status": "RECRUITING",
    "color": "#3498db",
    "title": "Blinatumomab Ph-neg ALL elderly [P3]",
    "conditions": [
      "Newly Diagnosed Philadelphia (Ph)-Negative B-cell Precursor Acute Lymphoblastic Leukemia (ALL)"
    ]
  },
  {
    "lat": 48.11109,
    "lon": -1.67431,
    "facility": "Centre Hospitalier Universitaire de Rennes",
    "city": "Rennes",
    "country": "France",
    "nct": "NCT04994717",
    "status": "RECRUITING",
    "site_status": "RECRUITING",
    "color": "#3498db",
    "title": "Blinatumomab Ph-neg ALL elderly [P3]",
    "conditions": [
      "Newly Diagnosed Philadelphia (Ph)-Negative B-cell Precursor Acute Lymphoblastic Leukemia (ALL)"
    ]
  },
  {
    "lat": 43.60426,
    "lon": 1.44367,
    "facility": "Institut Universitaire du Cancer Toulouse Oncopole",
    "city": "Toulouse",
    "country": "France",
    "nct": "NCT04994717",
    "status": "RECRUITING",
    "site_status": "RECRUITING",
    "color": "#3498db",
    "title": "Blinatumomab Ph-neg ALL elderly [P3]",
    "conditions": [
      "Newly Diagnosed Philadelphia (Ph)-Negative B-cell Precursor Acute Lymphoblastic Leukemia (ALL)"
    ]
  },
  {
    "lat": 48.66115,
    "lon": 6.17114,
    "facility": "Centre Hospitalier Universitaire de Nancy - Hopital de Brabois",
    "city": "Vand\u0153uvre-l\u00e8s-Nancy",
    "country": "France",
    "nct": "NCT04994717",
    "status": "RECRUITING",
    "site_status": "RECRUITING",
    "color": "#3498db",
    "title": "Blinatumomab Ph-neg ALL elderly [P3]",
    "conditions": [
      "Newly Diagnosed Philadelphia (Ph)-Negative B-cell Precursor Acute Lymphoblastic Leukemia (ALL)"
    ]
  },
  {
    "lat": 48.37154,
    "lon": 10.89851,
    "facility": "Universitaetsklinikum Augsburg",
    "city": "Augsburg",
    "country": "Germany",
    "nct": "NCT04994717",
    "status": "COMPLETED",
    "site_status": "COMPLETED",
    "color": "#3498db",
    "title": "Blinatumomab Ph-neg ALL elderly [P3]",
    "conditions": [
      "Newly Diagnosed Philadelphia (Ph)-Negative B-cell Precursor Acute Lymphoblastic Leukemia (ALL)"
    ]
  },
  {
    "lat": 52.52437,
    "lon": 13.41053,
    "facility": "Charite - Universitaetsmedizin Berlin, Campus Benjamin Franklin",
    "city": "Berlin",
    "country": "Germany",
    "nct": "NCT04994717",
    "status": "COMPLETED",
    "site_status": "COMPLETED",
    "color": "#3498db",
    "title": "Blinatumomab Ph-neg ALL elderly [P3]",
    "conditions": [
      "Newly Diagnosed Philadelphia (Ph)-Negative B-cell Precursor Acute Lymphoblastic Leukemia (ALL)"
    ]
  },
  {
    "lat": 51.05089,
    "lon": 13.73832,
    "facility": "Universitaetsklinikum Dresden",
    "city": "Dresden",
    "country": "Germany",
    "nct": "NCT04994717",
    "status": "COMPLETED",
    "site_status": "COMPLETED",
    "color": "#3498db",
    "title": "Blinatumomab Ph-neg ALL elderly [P3]",
    "conditions": [
      "Newly Diagnosed Philadelphia (Ph)-Negative B-cell Precursor Acute Lymphoblastic Leukemia (ALL)"
    ]
  },
  {
    "lat": 51.22172,
    "lon": 6.77616,
    "facility": "Universitaetsklinikum Duesseldorf",
    "city": "D\u00fcsseldorf",
    "country": "Germany",
    "nct": "NCT04994717",
    "status": "COMPLETED",
    "site_status": "COMPLETED",
    "color": "#3498db",
    "title": "Blinatumomab Ph-neg ALL elderly [P3]",
    "conditions": [
      "Newly Diagnosed Philadelphia (Ph)-Negative B-cell Precursor Acute Lymphoblastic Leukemia (ALL)"
    ]
  },
  {
    "lat": 49.40768,
    "lon": 8.69079,
    "facility": "Universitaetsklinikum Heidelberg",
    "city": "Heidelberg",
    "country": "Germany",
    "nct": "NCT04994717",
    "status": "COMPLETED",
    "site_status": "COMPLETED",
    "color": "#3498db",
    "title": "Blinatumomab Ph-neg ALL elderly [P3]",
    "conditions": [
      "Newly Diagnosed Philadelphia (Ph)-Negative B-cell Precursor Acute Lymphoblastic Leukemia (ALL)"
    ]
  },
  {
    "lat": 50.92878,
    "lon": 11.5899,
    "facility": "Universitaetsklinikum Jena",
    "city": "Jena",
    "country": "Germany",
    "nct": "NCT04994717",
    "status": "COMPLETED",
    "site_status": "COMPLETED",
    "color": "#3498db",
    "title": "Blinatumomab Ph-neg ALL elderly [P3]",
    "conditions": [
      "Newly Diagnosed Philadelphia (Ph)-Negative B-cell Precursor Acute Lymphoblastic Leukemia (ALL)"
    ]
  },
  {
    "lat": 54.32133,
    "lon": 10.13489,
    "facility": "Universitaetsklinikum Schleswig-Holstein - Kiel",
    "city": "Kiel",
    "country": "Germany",
    "nct": "NCT04994717",
    "status": "COMPLETED",
    "site_status": "COMPLETED",
    "color": "#3498db",
    "title": "Blinatumomab Ph-neg ALL elderly [P3]",
    "conditions": [
      "Newly Diagnosed Philadelphia (Ph)-Negative B-cell Precursor Acute Lymphoblastic Leukemia (ALL)"
    ]
  },
  {
    "lat": 51.60698,
    "lon": 13.31243,
    "facility": "Klinikum der LMU Muenchen",
    "city": "M\u00fcnchen",
    "country": "Germany",
    "nct": "NCT04994717",
    "status": "COMPLETED",
    "site_status": "COMPLETED",
    "color": "#3498db",
    "title": "Blinatumomab Ph-neg ALL elderly [P3]",
    "conditions": [
      "Newly Diagnosed Philadelphia (Ph)-Negative B-cell Precursor Acute Lymphoblastic Leukemia (ALL)"
    ]
  },
  {
    "lat": 37.98376,
    "lon": 23.72784,
    "facility": "Evangelismos Hospital",
    "city": "Athens",
    "country": "Greece",
    "nct": "NCT04994717",
    "status": "RECRUITING",
    "site_status": "RECRUITING",
    "color": "#3498db",
    "title": "Blinatumomab Ph-neg ALL elderly [P3]",
    "conditions": [
      "Newly Diagnosed Philadelphia (Ph)-Negative B-cell Precursor Acute Lymphoblastic Leukemia (ALL)"
    ]
  },
  {
    "lat": 37.98376,
    "lon": 23.72784,
    "facility": "Laiko General Hospital of Athens",
    "city": "Athens",
    "country": "Greece",
    "nct": "NCT04994717",
    "status": "RECRUITING",
    "site_status": "RECRUITING",
    "color": "#3498db",
    "title": "Blinatumomab Ph-neg ALL elderly [P3]",
    "conditions": [
      "Newly Diagnosed Philadelphia (Ph)-Negative B-cell Precursor Acute Lymphoblastic Leukemia (ALL)"
    ]
  },
  {
    "lat": 37.98376,
    "lon": 23.72784,
    "facility": "Attiko General University Hospital",
    "city": "Athens",
    "country": "Greece",
    "nct": "NCT04994717",
    "status": "RECRUITING",
    "site_status": "RECRUITING",
    "color": "#3498db",
    "title": "Blinatumomab Ph-neg ALL elderly [P3]",
    "conditions": [
      "Newly Diagnosed Philadelphia (Ph)-Negative B-cell Precursor Acute Lymphoblastic Leukemia (ALL)"
    ]
  },
  {
    "lat": 35.32787,
    "lon": 25.14341,
    "facility": "University Hospital of Heraklion",
    "city": "Heraklion",
    "country": "Greece",
    "nct": "NCT04994717",
    "status": "RECRUITING",
    "site_status": "RECRUITING",
    "color": "#3498db",
    "title": "Blinatumomab Ph-neg ALL elderly [P3]",
    "conditions": [
      "Newly Diagnosed Philadelphia (Ph)-Negative B-cell Precursor Acute Lymphoblastic Leukemia (ALL)"
    ]
  },
  {
    "lat": 39.66341,
    "lon": 20.85187,
    "facility": "University Hospital of Ioannina",
    "city": "Ioannina",
    "country": "Greece",
    "nct": "NCT04994717",
    "status": "RECRUITING",
    "site_status": "RECRUITING",
    "color": "#3498db",
    "title": "Blinatumomab Ph-neg ALL elderly [P3]",
    "conditions": [
      "Newly Diagnosed Philadelphia (Ph)-Negative B-cell Precursor Acute Lymphoblastic Leukemia (ALL)"
    ]
  },
  {
    "lat": 39.62847,
    "lon": 22.42112,
    "facility": "University Hospital of Larissa",
    "city": "Larissa",
    "country": "Greece",
    "nct": "NCT04994717",
    "status": "RECRUITING",
    "site_status": "RECRUITING",
    "color": "#3498db",
    "title": "Blinatumomab Ph-neg ALL elderly [P3]",
    "conditions": [
      "Newly Diagnosed Philadelphia (Ph)-Negative B-cell Precursor Acute Lymphoblastic Leukemia (ALL)"
    ]
  },
  {
    "lat": 38.2462,
    "lon": 21.73508,
    "facility": "University Hospital of Patras",
    "city": "P\u00e1trai",
    "country": "Greece",
    "nct": "NCT04994717",
    "status": "RECRUITING",
    "site_status": "RECRUITING",
    "color": "#3498db",
    "title": "Blinatumomab Ph-neg ALL elderly [P3]",
    "conditions": [
      "Newly Diagnosed Philadelphia (Ph)-Negative B-cell Precursor Acute Lymphoblastic Leukemia (ALL)"
    ]
  },
  {
    "lat": 40.64072,
    "lon": 22.93493,
    "facility": "General Hospital of Thessaloniki Georgios Papanikolaou",
    "city": "Thessaloniki",
    "country": "Greece",
    "nct": "NCT04994717",
    "status": "RECRUITING",
    "site_status": "RECRUITING",
    "color": "#3498db",
    "title": "Blinatumomab Ph-neg ALL elderly [P3]",
    "conditions": [
      "Newly Diagnosed Philadelphia (Ph)-Negative B-cell Precursor Acute Lymphoblastic Leukemia (ALL)"
    ]
  },
  {
    "lat": 22.27832,
    "lon": 114.17469,
    "facility": "Queen Mary Hospital, The University of Hong Kong",
    "city": "Hong Kong",
    "country": "Hong Kong",
    "nct": "NCT04994717",
    "status": "RECRUITING",
    "site_status": "RECRUITING",
    "color": "#3498db",
    "title": "Blinatumomab Ph-neg ALL elderly [P3]",
    "conditions": [
      "Newly Diagnosed Philadelphia (Ph)-Negative B-cell Precursor Acute Lymphoblastic Leukemia (ALL)"
    ]
  },
  {
    "lat": 22.31667,
    "lon": 114.18333,
    "facility": "Princess Margaret Hospital",
    "city": "Kowloon",
    "country": "Hong Kong",
    "nct": "NCT04994717",
    "status": "RECRUITING",
    "site_status": "RECRUITING",
    "color": "#3498db",
    "title": "Blinatumomab Ph-neg ALL elderly [P3]",
    "conditions": [
      "Newly Diagnosed Philadelphia (Ph)-Negative B-cell Precursor Acute Lymphoblastic Leukemia (ALL)"
    ]
  },
  {
    "lat": 22.42441,
    "lon": 114.11095,
    "facility": "Tuen Mun Hospital",
    "city": "New Territories",
    "country": "Hong Kong",
    "nct": "NCT04994717",
    "status": "RECRUITING",
    "site_status": "RECRUITING",
    "color": "#3498db",
    "title": "Blinatumomab Ph-neg ALL elderly [P3]",
    "conditions": [
      "Newly Diagnosed Philadelphia (Ph)-Negative B-cell Precursor Acute Lymphoblastic Leukemia (ALL)"
    ]
  },
  {
    "lat": 47.49835,
    "lon": 19.04045,
    "facility": "Semmelweis Egyetem",
    "city": "Budapest",
    "country": "Hungary",
    "nct": "NCT04994717",
    "status": "RECRUITING",
    "site_status": "RECRUITING",
    "color": "#3498db",
    "title": "Blinatumomab Ph-neg ALL elderly [P3]",
    "conditions": [
      "Newly Diagnosed Philadelphia (Ph)-Negative B-cell Precursor Acute Lymphoblastic Leukemia (ALL)"
    ]
  },
  {
    "lat": 47.49835,
    "lon": 19.04045,
    "facility": "Del-pesti Centrumkorhaz - Orszagos Hematologiai es Infektologiai Intezet",
    "city": "Budapest",
    "country": "Hungary",
    "nct": "NCT04994717",
    "status": "RECRUITING",
    "site_status": "RECRUITING",
    "color": "#3498db",
    "title": "Blinatumomab Ph-neg ALL elderly [P3]",
    "conditions": [
      "Newly Diagnosed Philadelphia (Ph)-Negative B-cell Precursor Acute Lymphoblastic Leukemia (ALL)"
    ]
  },
  {
    "lat": 47.53167,
    "lon": 21.62444,
    "facility": "Debreceni Egyetem Klinikai Kozpont",
    "city": "Debrecen",
    "country": "Hungary",
    "nct": "NCT04994717",
    "status": "RECRUITING",
    "site_status": "RECRUITING",
    "color": "#3498db",
    "title": "Blinatumomab Ph-neg ALL elderly [P3]",
    "conditions": [
      "Newly Diagnosed Philadelphia (Ph)-Negative B-cell Precursor Acute Lymphoblastic Leukemia (ALL)"
    ]
  },
  {
    "lat": 47.90265,
    "lon": 20.37329,
    "facility": "Heves Varmegyei Markhot Ferenc Oktatokorhaz es Rendelointezet",
    "city": "Eger",
    "country": "Hungary",
    "nct": "NCT04994717",
    "status": "RECRUITING",
    "site_status": "RECRUITING",
    "color": "#3498db",
    "title": "Blinatumomab Ph-neg ALL elderly [P3]",
    "conditions": [
      "Newly Diagnosed Philadelphia (Ph)-Negative B-cell Precursor Acute Lymphoblastic Leukemia (ALL)"
    ]
  },
  {
    "lat": 47.95539,
    "lon": 21.71671,
    "facility": "Szabolcs-Szatmar-Bereg Varmegyei Oktatokorhaz Nyiregyhazi Josa Andras Tagkorhaz",
    "city": "Ny\u00edregyh\u00e1za",
    "country": "Hungary",
    "nct": "NCT04994717",
    "status": "RECRUITING",
    "site_status": "RECRUITING",
    "color": "#3498db",
    "title": "Blinatumomab Ph-neg ALL elderly [P3]",
    "conditions": [
      "Newly Diagnosed Philadelphia (Ph)-Negative B-cell Precursor Acute Lymphoblastic Leukemia (ALL)"
    ]
  },
  {
    "lat": 32.81303,
    "lon": 34.99928,
    "facility": "Rambam Medical Center",
    "city": "Haifa",
    "country": "Israel",
    "nct": "NCT04994717",
    "status": "RECRUITING",
    "site_status": "RECRUITING",
    "color": "#3498db",
    "title": "Blinatumomab Ph-neg ALL elderly [P3]",
    "conditions": [
      "Newly Diagnosed Philadelphia (Ph)-Negative B-cell Precursor Acute Lymphoblastic Leukemia (ALL)"
    ]
  },
  {
    "lat": 31.76904,
    "lon": 35.21633,
    "facility": "Shaare Zedek Medical Center",
    "city": "Jerusalem",
    "country": "Israel",
    "nct": "NCT04994717",
    "status": "RECRUITING",
    "site_status": "RECRUITING",
    "color": "#3498db",
    "title": "Blinatumomab Ph-neg ALL elderly [P3]",
    "conditions": [
      "Newly Diagnosed Philadelphia (Ph)-Negative B-cell Precursor Acute Lymphoblastic Leukemia (ALL)"
    ]
  },
  {
    "lat": 32.08707,
    "lon": 34.88747,
    "facility": "Rabin Medical Center - Beilinson Hospital",
    "city": "Petah Tikva",
    "country": "Israel",
    "nct": "NCT04994717",
    "status": "RECRUITING",
    "site_status": "RECRUITING",
    "color": "#3498db",
    "title": "Blinatumomab Ph-neg ALL elderly [P3]",
    "conditions": [
      "Newly Diagnosed Philadelphia (Ph)-Negative B-cell Precursor Acute Lymphoblastic Leukemia (ALL)"
    ]
  },
  {
    "lat": 41.12066,
    "lon": 16.86982,
    "facility": "Azienda Ospedaliera Universitaria Consorziale Policlinico di Bari",
    "city": "Bari",
    "country": "Italy",
    "nct": "NCT04994717",
    "status": "TERMINATED",
    "site_status": "TERMINATED",
    "color": "#3498db",
    "title": "Blinatumomab Ph-neg ALL elderly [P3]",
    "conditions": [
      "Newly Diagnosed Philadelphia (Ph)-Negative B-cell Precursor Acute Lymphoblastic Leukemia (ALL)"
    ]
  },
  {
    "lat": 45.69601,
    "lon": 9.66721,
    "facility": "Azienda Socio Sanitaria Territoriale Papa Giovanni xxiii",
    "city": "Bergamo",
    "country": "Italy",
    "nct": "NCT04994717",
    "status": "RECRUITING",
    "site_status": "RECRUITING",
    "color": "#3498db",
    "title": "Blinatumomab Ph-neg ALL elderly [P3]",
    "conditions": [
      "Newly Diagnosed Philadelphia (Ph)-Negative B-cell Precursor Acute Lymphoblastic Leukemia (ALL)"
    ]
  },
  {
    "lat": 44.49381,
    "lon": 11.33875,
    "facility": "IRCCS Azienda Ospedaliero Universitaria di Bologna Policlinico di Sant Orsola",
    "city": "Bologna",
    "country": "Italy",
    "nct": "NCT04994717",
    "status": "RECRUITING",
    "site_status": "RECRUITING",
    "color": "#3498db",
    "title": "Blinatumomab Ph-neg ALL elderly [P3]",
    "conditions": [
      "Newly Diagnosed Philadelphia (Ph)-Negative B-cell Precursor Acute Lymphoblastic Leukemia (ALL)"
    ]
  },
  {
    "lat": 45.21604,
    "lon": 11.87211,
    "facility": "Ospedale Policlinico San Martino IRCCS",
    "city": "Genova",
    "country": "Italy",
    "nct": "NCT04994717",
    "status": "RECRUITING",
    "site_status": "RECRUITING",
    "color": "#3498db",
    "title": "Blinatumomab Ph-neg ALL elderly [P3]",
    "conditions": [
      "Newly Diagnosed Philadelphia (Ph)-Negative B-cell Precursor Acute Lymphoblastic Leukemia (ALL)"
    ]
  },
  {
    "lat": 40.35481,
    "lon": 18.17244,
    "facility": "Azienda Unita Sanitaria Locale LE Presidio Ospedaliero Vito Fazzi Polo Oncologico Giovanni Paolo II",
    "city": "Lecce",
    "country": "Italy",
    "nct": "NCT04994717",
    "status": "TERMINATED",
    "site_status": "TERMINATED",
    "color": "#3498db",
    "title": "Blinatumomab Ph-neg ALL elderly [P3]",
    "conditions": [
      "Newly Diagnosed Philadelphia (Ph)-Negative B-cell Precursor Acute Lymphoblastic Leukemia (ALL)"
    ]
  },
  {
    "lat": 45.49167,
    "lon": 12.24538,
    "facility": "Azienda Unit\u00e0 Locale Socio Sanitaria 3 Ospedale Dell Angelo",
    "city": "Mestre (VE)",
    "country": "Italy",
    "nct": "NCT04994717",
    "status": "RECRUITING",
    "site_status": "RECRUITING",
    "color": "#3498db",
    "title": "Blinatumomab Ph-neg ALL elderly [P3]",
    "conditions": [
      "Newly Diagnosed Philadelphia (Ph)-Negative B-cell Precursor Acute Lymphoblastic Leukemia (ALL)"
    ]
  },
  {
    "lat": 42.78235,
    "lon": 12.59836,
    "facility": "Fondazione IRCCS Ca Granda Ospedale Maggiore Policlinico",
    "city": "Milan",
    "country": "Italy",
    "nct": "NCT04994717",
    "status": "RECRUITING",
    "site_status": "RECRUITING",
    "color": "#3498db",
    "title": "Blinatumomab Ph-neg ALL elderly [P3]",
    "conditions": [
      "Newly Diagnosed Philadelphia (Ph)-Negative B-cell Precursor Acute Lymphoblastic Leukemia (ALL)"
    ]
  },
  {
    "lat": 40.87618,
    "lon": 14.5195,
    "facility": "Azienda Ospedaliera di Rilievo Nazionale Antonio Cardarelli",
    "city": "Napoli",
    "country": "Italy",
    "nct": "NCT04994717",
    "status": "RECRUITING",
    "site_status": "RECRUITING",
    "color": "#3498db",
    "title": "Blinatumomab Ph-neg ALL elderly [P3]",
    "conditions": [
      "Newly Diagnosed Philadelphia (Ph)-Negative B-cell Precursor Acute Lymphoblastic Leukemia (ALL)"
    ]
  },
  {
    "lat": 43.1122,
    "lon": 12.38878,
    "facility": "Azienda Ospedaliera di Perugia Ospedale Santa Maria della Misericordia",
    "city": "Perugia",
    "country": "Italy",
    "nct": "NCT04994717",
    "status": "RECRUITING",
    "site_status": "RECRUITING",
    "color": "#3498db",
    "title": "Blinatumomab Ph-neg ALL elderly [P3]",
    "conditions": [
      "Newly Diagnosed Philadelphia (Ph)-Negative B-cell Precursor Acute Lymphoblastic Leukemia (ALL)"
    ]
  },
  {
    "lat": 42.4584,
    "lon": 14.20283,
    "facility": "Azienda Unita Sanitaria Locale Pescara Ospedale Civile Santo Spirito",
    "city": "Pescara",
    "country": "Italy",
    "nct": "NCT04994717",
    "status": "RECRUITING",
    "site_status": "RECRUITING",
    "color": "#3498db",
    "title": "Blinatumomab Ph-neg ALL elderly [P3]",
    "conditions": [
      "Newly Diagnosed Philadelphia (Ph)-Negative B-cell Precursor Acute Lymphoblastic Leukemia (ALL)"
    ]
  },
  {
    "lat": 44.99364,
    "lon": 11.10642,
    "facility": "Azienda Ospedaliera Policlinico Umberto I",
    "city": "Roma",
    "country": "Italy",
    "nct": "NCT04994717",
    "status": "RECRUITING",
    "site_status": "RECRUITING",
    "color": "#3498db",
    "title": "Blinatumomab Ph-neg ALL elderly [P3]",
    "conditions": [
      "Newly Diagnosed Philadelphia (Ph)-Negative B-cell Precursor Acute Lymphoblastic Leukemia (ALL)"
    ]
  },
  {
    "lat": 44.88856,
    "lon": 11.99138,
    "facility": "Azienda Ospedaliero Universitaria Citta della Salute e della Scienza di Torino",
    "city": "Torino",
    "country": "Italy",
    "nct": "NCT04994717",
    "status": "RECRUITING",
    "site_status": "RECRUITING",
    "color": "#3498db",
    "title": "Blinatumomab Ph-neg ALL elderly [P3]",
    "conditions": [
      "Newly Diagnosed Philadelphia (Ph)-Negative B-cell Precursor Acute Lymphoblastic Leukemia (ALL)"
    ]
  },
  {
    "lat": 45.43854,
    "lon": 10.9938,
    "facility": "Azienda Ospedaliera Universitaria Integrata di Verona Ospedale G B Rossi Borgo Roma",
    "city": "Verona",
    "country": "Italy",
    "nct": "NCT04994717",
    "status": "TERMINATED",
    "site_status": "TERMINATED",
    "color": "#3498db",
    "title": "Blinatumomab Ph-neg ALL elderly [P3]",
    "conditions": [
      "Newly Diagnosed Philadelphia (Ph)-Negative B-cell Precursor Acute Lymphoblastic Leukemia (ALL)"
    ]
  },
  {
    "lat": 35.18147,
    "lon": 136.90641,
    "facility": "Nagoya University Hospital",
    "city": "Nagoya",
    "state": "Aichi-ken",
    "country": "Japan",
    "nct": "NCT04994717",
    "status": "RECRUITING",
    "site_status": "RECRUITING",
    "color": "#3498db",
    "title": "Blinatumomab Ph-neg ALL elderly [P3]",
    "conditions": [
      "Newly Diagnosed Philadelphia (Ph)-Negative B-cell Precursor Acute Lymphoblastic Leukemia (ALL)"
    ]
  },
  {
    "lat": 39.71667,
    "lon": 140.11667,
    "facility": "Akita University Hospital",
    "city": "Akita",
    "state": "Akita",
    "country": "Japan",
    "nct": "NCT04994717",
    "status": "RECRUITING",
    "site_status": "RECRUITING",
    "color": "#3498db",
    "title": "Blinatumomab Ph-neg ALL elderly [P3]",
    "conditions": [
      "Newly Diagnosed Philadelphia (Ph)-Negative B-cell Precursor Acute Lymphoblastic Leukemia (ALL)"
    ]
  },
  {
    "lat": 33.6,
    "lon": 130.41667,
    "facility": "Kyushu University Hospital",
    "city": "Fukuoka",
    "state": "Fukuoka",
    "country": "Japan",
    "nct": "NCT04994717",
    "status": "RECRUITING",
    "site_status": "RECRUITING",
    "color": "#3498db",
    "title": "Blinatumomab Ph-neg ALL elderly [P3]",
    "conditions": [
      "Newly Diagnosed Philadelphia (Ph)-Negative B-cell Precursor Acute Lymphoblastic Leukemia (ALL)"
    ]
  },
  {
    "lat": 37.75,
    "lon": 140.46667,
    "facility": "Fukushima Medical University Hospital",
    "city": "Fukushima",
    "state": "Fukushima",
    "country": "Japan",
    "nct": "NCT04994717",
    "status": "RECRUITING",
    "site_status": "RECRUITING",
    "color": "#3498db",
    "title": "Blinatumomab Ph-neg ALL elderly [P3]",
    "conditions": [
      "Newly Diagnosed Philadelphia (Ph)-Negative B-cell Precursor Acute Lymphoblastic Leukemia (ALL)"
    ]
  },
  {
    "lat": 36.4,
    "lon": 139.08333,
    "facility": "Gunma Saiseikai Maebashi Hospital",
    "city": "Maebashi",
    "state": "Gunma",
    "country": "Japan",
    "nct": "NCT04994717",
    "status": "RECRUITING",
    "site_status": "RECRUITING",
    "color": "#3498db",
    "title": "Blinatumomab Ph-neg ALL elderly [P3]",
    "conditions": [
      "Newly Diagnosed Philadelphia (Ph)-Negative B-cell Precursor Acute Lymphoblastic Leukemia (ALL)"
    ]
  },
  {
    "lat": 43.06667,
    "lon": 141.35,
    "facility": "Sapporo Hokuyu Hospital",
    "city": "Sapporo",
    "state": "Hokkaido",
    "country": "Japan",
    "nct": "NCT04994717",
    "status": "RECRUITING",
    "site_status": "RECRUITING",
    "color": "#3498db",
    "title": "Blinatumomab Ph-neg ALL elderly [P3]",
    "conditions": [
      "Newly Diagnosed Philadelphia (Ph)-Negative B-cell Precursor Acute Lymphoblastic Leukemia (ALL)"
    ]
  },
  {
    "lat": 34.6913,
    "lon": 135.183,
    "facility": "Kobe City Medical Center General Hospital",
    "city": "Kobe",
    "state": "Hy\u014dgo",
    "country": "Japan",
    "nct": "NCT04994717",
    "status": "RECRUITING",
    "site_status": "RECRUITING",
    "color": "#3498db",
    "title": "Blinatumomab Ph-neg ALL elderly [P3]",
    "conditions": [
      "Newly Diagnosed Philadelphia (Ph)-Negative B-cell Precursor Acute Lymphoblastic Leukemia (ALL)"
    ]
  },
  {
    "lat": 36.6,
    "lon": 136.61667,
    "facility": "Kanazawa University Hospital",
    "city": "Kanazawa",
    "state": "Ishikawa-ken",
    "country": "Japan",
    "nct": "NCT04994717",
    "status": "RECRUITING",
    "site_status": "RECRUITING",
    "color": "#3498db",
    "title": "Blinatumomab Ph-neg ALL elderly [P3]",
    "conditions": [
      "Newly Diagnosed Philadelphia (Ph)-Negative B-cell Precursor Acute Lymphoblastic Leukemia (ALL)"
    ]
  },
  {
    "lat": 35.43333,
    "lon": 139.65,
    "facility": "Yokohama City University Medical Center",
    "city": "Yokohama",
    "state": "Kanagawa",
    "country": "Japan",
    "nct": "NCT04994717",
    "status": "RECRUITING",
    "site_status": "RECRUITING",
    "color": "#3498db",
    "title": "Blinatumomab Ph-neg ALL elderly [P3]",
    "conditions": [
      "Newly Diagnosed Philadelphia (Ph)-Negative B-cell Precursor Acute Lymphoblastic Leukemia (ALL)"
    ]
  },
  {
    "lat": 35.02107,
    "lon": 135.75385,
    "facility": "Kyoto University Hospital",
    "city": "Kyoto",
    "state": "Kyoto",
    "country": "Japan",
    "nct": "NCT04994717",
    "status": "RECRUITING",
    "site_status": "RECRUITING",
    "color": "#3498db",
    "title": "Blinatumomab Ph-neg ALL elderly [P3]",
    "conditions": [
      "Newly Diagnosed Philadelphia (Ph)-Negative B-cell Precursor Acute Lymphoblastic Leukemia (ALL)"
    ]
  },
  {
    "lat": 38.26667,
    "lon": 140.86667,
    "facility": "Tohoku University Hospital",
    "city": "Sendai",
    "state": "Miyagi",
    "country": "Japan",
    "nct": "NCT04994717",
    "status": "RECRUITING",
    "site_status": "RECRUITING",
    "color": "#3498db",
    "title": "Blinatumomab Ph-neg ALL elderly [P3]",
    "conditions": [
      "Newly Diagnosed Philadelphia (Ph)-Negative B-cell Precursor Acute Lymphoblastic Leukemia (ALL)"
    ]
  },
  {
    "lat": 32.75,
    "lon": 129.88333,
    "facility": "Nagasaki University Hospital",
    "city": "Nagasaki",
    "state": "Nagasaki",
    "country": "Japan",
    "nct": "NCT04994717",
    "status": "RECRUITING",
    "site_status": "RECRUITING",
    "color": "#3498db",
    "title": "Blinatumomab Ph-neg ALL elderly [P3]",
    "conditions": [
      "Newly Diagnosed Philadelphia (Ph)-Negative B-cell Precursor Acute Lymphoblastic Leukemia (ALL)"
    ]
  },
  {
    "lat": 34.65,
    "lon": 133.93333,
    "facility": "National Hospital Organization Okayama Medical Center",
    "city": "Okayama",
    "state": "Okayama-ken",
    "country": "Japan",
    "nct": "NCT04994717",
    "status": "RECRUITING",
    "site_status": "RECRUITING",
    "color": "#3498db",
    "title": "Blinatumomab Ph-neg ALL elderly [P3]",
    "conditions": [
      "Newly Diagnosed Philadelphia (Ph)-Negative B-cell Precursor Acute Lymphoblastic Leukemia (ALL)"
    ]
  },
  {
    "lat": 34.69379,
    "lon": 135.50107,
    "facility": "Osaka Metropolitan University Hospital",
    "city": "Osaka",
    "state": "Osaka",
    "country": "Japan",
    "nct": "NCT04994717",
    "status": "RECRUITING",
    "site_status": "RECRUITING",
    "color": "#3498db",
    "title": "Blinatumomab Ph-neg ALL elderly [P3]",
    "conditions": [
      "Newly Diagnosed Philadelphia (Ph)-Negative B-cell Precursor Acute Lymphoblastic Leukemia (ALL)"
    ]
  },
  {
    "lat": 38.23333,
    "lon": 140.36667,
    "facility": "Yamagata University Hospital",
    "city": "Yamagata",
    "state": "Yamagata",
    "country": "Japan",
    "nct": "NCT04994717",
    "status": "RECRUITING",
    "site_status": "RECRUITING",
    "color": "#3498db",
    "title": "Blinatumomab Ph-neg ALL elderly [P3]",
    "conditions": [
      "Newly Diagnosed Philadelphia (Ph)-Negative B-cell Precursor Acute Lymphoblastic Leukemia (ALL)"
    ]
  },
  {
    "lat": 19.42847,
    "lon": -99.12766,
    "facility": "Boca Clinical Trials Mexico SC",
    "city": "Mexico City",
    "state": "Mexico City",
    "country": "Mexico",
    "nct": "NCT04994717",
    "status": "TERMINATED",
    "site_status": "TERMINATED",
    "color": "#3498db",
    "title": "Blinatumomab Ph-neg ALL elderly [P3]",
    "conditions": [
      "Newly Diagnosed Philadelphia (Ph)-Negative B-cell Precursor Acute Lymphoblastic Leukemia (ALL)"
    ]
  },
  {
    "lat": 19.42847,
    "lon": -99.12766,
    "facility": "Centro Oncologico Internacional",
    "city": "Mexico City",
    "state": "Mexico City",
    "country": "Mexico",
    "nct": "NCT04994717",
    "status": "RECRUITING",
    "site_status": "RECRUITING",
    "color": "#3498db",
    "title": "Blinatumomab Ph-neg ALL elderly [P3]",
    "conditions": [
      "Newly Diagnosed Philadelphia (Ph)-Negative B-cell Precursor Acute Lymphoblastic Leukemia (ALL)"
    ]
  },
  {
    "lat": 25.68435,
    "lon": -100.31721,
    "facility": "Hospital Universitario Dr Jose Eleuterio Gonzalez",
    "city": "Monterrey",
    "state": "Nuevo Le\u00f3n",
    "country": "Mexico",
    "nct": "NCT04994717",
    "status": "RECRUITING",
    "site_status": "RECRUITING",
    "color": "#3498db",
    "title": "Blinatumomab Ph-neg ALL elderly [P3]",
    "conditions": [
      "Newly Diagnosed Philadelphia (Ph)-Negative B-cell Precursor Acute Lymphoblastic Leukemia (ALL)"
    ]
  },
  {
    "lat": 19.35985,
    "lon": -99.35016,
    "facility": "Hematologica Alta Especialidad",
    "city": "Huixquilucan",
    "country": "Mexico",
    "nct": "NCT04994717",
    "status": "RECRUITING",
    "site_status": "RECRUITING",
    "color": "#3498db",
    "title": "Blinatumomab Ph-neg ALL elderly [P3]",
    "conditions": [
      "Newly Diagnosed Philadelphia (Ph)-Negative B-cell Precursor Acute Lymphoblastic Leukemia (ALL)"
    ]
  },
  {
    "lat": 19.42847,
    "lon": -99.12766,
    "facility": "Instituto Nacional de Ciencias Medicas y Nutricion Salvador Zubiran",
    "city": "Mexico City",
    "country": "Mexico",
    "nct": "NCT04994717",
    "status": "RECRUITING",
    "site_status": "RECRUITING",
    "color": "#3498db",
    "title": "Blinatumomab Ph-neg ALL elderly [P3]",
    "conditions": [
      "Newly Diagnosed Philadelphia (Ph)-Negative B-cell Precursor Acute Lymphoblastic Leukemia (ALL)"
    ]
  },
  {
    "lat": 53.21917,
    "lon": 6.56667,
    "facility": "Universitair Medisch Centrum Groningen",
    "city": "Groningen",
    "country": "Netherlands",
    "nct": "NCT04994717",
    "status": "ACTIVE_NOT_RECRUITING",
    "site_status": "ACTIVE_NOT_RECRUITING",
    "color": "#3498db",
    "title": "Blinatumomab Ph-neg ALL elderly [P3]",
    "conditions": [
      "Newly Diagnosed Philadelphia (Ph)-Negative B-cell Precursor Acute Lymphoblastic Leukemia (ALL)"
    ]
  },
  {
    "lat": 40.20686,
    "lon": -8.41996,
    "facility": "Unidade Local de Saude de Coimbra, EPE",
    "city": "Coimbra",
    "country": "Portugal",
    "nct": "NCT04994717",
    "status": "RECRUITING",
    "site_status": "RECRUITING",
    "color": "#3498db",
    "title": "Blinatumomab Ph-neg ALL elderly [P3]",
    "conditions": [
      "Newly Diagnosed Philadelphia (Ph)-Negative B-cell Precursor Acute Lymphoblastic Leukemia (ALL)"
    ]
  },
  {
    "lat": 38.72509,
    "lon": -9.1498,
    "facility": "Instituto Portugues de Oncologia de Lisboa Francisco Gentil, EPE",
    "city": "Lisbon",
    "country": "Portugal",
    "nct": "NCT04994717",
    "status": "RECRUITING",
    "site_status": "RECRUITING",
    "color": "#3498db",
    "title": "Blinatumomab Ph-neg ALL elderly [P3]",
    "conditions": [
      "Newly Diagnosed Philadelphia (Ph)-Negative B-cell Precursor Acute Lymphoblastic Leukemia (ALL)"
    ]
  },
  {
    "lat": 38.72509,
    "lon": -9.1498,
    "facility": "Unidade Local de Saude de Sao Jose, EPE - Hospital de Santo Antonio dos Capuchos",
    "city": "Lisbon",
    "country": "Portugal",
    "nct": "NCT04994717",
    "status": "RECRUITING",
    "site_status": "RECRUITING",
    "color": "#3498db",
    "title": "Blinatumomab Ph-neg ALL elderly [P3]",
    "conditions": [
      "Newly Diagnosed Philadelphia (Ph)-Negative B-cell Precursor Acute Lymphoblastic Leukemia (ALL)"
    ]
  },
  {
    "lat": 38.72509,
    "lon": -9.1498,
    "facility": "Unidade Local de Saude de Santa Maria, EPE - Hospital de Santa Maria",
    "city": "Lisbon",
    "country": "Portugal",
    "nct": "NCT04994717",
    "status": "RECRUITING",
    "site_status": "RECRUITING",
    "color": "#3498db",
    "title": "Blinatumomab Ph-neg ALL elderly [P3]",
    "conditions": [
      "Newly Diagnosed Philadelphia (Ph)-Negative B-cell Precursor Acute Lymphoblastic Leukemia (ALL)"
    ]
  },
  {
    "lat": 41.1485,
    "lon": -8.61097,
    "facility": "Instituto Portugues de Oncologia do Porto Francisco Gentil, EPE",
    "city": "Porto",
    "country": "Portugal",
    "nct": "NCT04994717",
    "status": "RECRUITING",
    "site_status": "RECRUITING",
    "color": "#3498db",
    "title": "Blinatumomab Ph-neg ALL elderly [P3]",
    "conditions": [
      "Newly Diagnosed Philadelphia (Ph)-Negative B-cell Precursor Acute Lymphoblastic Leukemia (ALL)"
    ]
  },
  {
    "lat": 44.43225,
    "lon": 26.10626,
    "facility": "Institutul Clinic Fundeni",
    "city": "Bucharest",
    "country": "Romania",
    "nct": "NCT04994717",
    "status": "RECRUITING",
    "site_status": "RECRUITING",
    "color": "#3498db",
    "title": "Blinatumomab Ph-neg ALL elderly [P3]",
    "conditions": [
      "Newly Diagnosed Philadelphia (Ph)-Negative B-cell Precursor Acute Lymphoblastic Leukemia (ALL)"
    ]
  },
  {
    "lat": 44.43225,
    "lon": 26.10626,
    "facility": "Spitalul Universitar de Urgenta Bucuresti",
    "city": "Bucharest",
    "country": "Romania",
    "nct": "NCT04994717",
    "status": "RECRUITING",
    "site_status": "RECRUITING",
    "color": "#3498db",
    "title": "Blinatumomab Ph-neg ALL elderly [P3]",
    "conditions": [
      "Newly Diagnosed Philadelphia (Ph)-Negative B-cell Precursor Acute Lymphoblastic Leukemia (ALL)"
    ]
  },
  {
    "lat": 46.76667,
    "lon": 23.6,
    "facility": "Institutul Oncologic Prof Dr Ion Chiricuta",
    "city": "Cluj-Napoca",
    "country": "Romania",
    "nct": "NCT04994717",
    "status": "RECRUITING",
    "site_status": "RECRUITING",
    "color": "#3498db",
    "title": "Blinatumomab Ph-neg ALL elderly [P3]",
    "conditions": [
      "Newly Diagnosed Philadelphia (Ph)-Negative B-cell Precursor Acute Lymphoblastic Leukemia (ALL)"
    ]
  },
  {
    "lat": 44.31667,
    "lon": 23.8,
    "facility": "Spitalul Clinic Municipal Filantropia Craiova",
    "city": "Craiova",
    "country": "Romania",
    "nct": "NCT04994717",
    "status": "RECRUITING",
    "site_status": "RECRUITING",
    "color": "#3498db",
    "title": "Blinatumomab Ph-neg ALL elderly [P3]",
    "conditions": [
      "Newly Diagnosed Philadelphia (Ph)-Negative B-cell Precursor Acute Lymphoblastic Leukemia (ALL)"
    ]
  },
  {
    "lat": 47.16667,
    "lon": 27.6,
    "facility": "Institutul Regional de Oncologie Iasi",
    "city": "Ia\u0219i",
    "country": "Romania",
    "nct": "NCT04994717",
    "status": "RECRUITING",
    "site_status": "RECRUITING",
    "color": "#3498db",
    "title": "Blinatumomab Ph-neg ALL elderly [P3]",
    "conditions": [
      "Newly Diagnosed Philadelphia (Ph)-Negative B-cell Precursor Acute Lymphoblastic Leukemia (ALL)"
    ]
  },
  {
    "lat": 45.8,
    "lon": 24.15,
    "facility": "Spitalul Clinic Judetean de Urgenta Sibiu",
    "city": "Sibiu",
    "country": "Romania",
    "nct": "NCT04994717",
    "status": "RECRUITING",
    "site_status": "RECRUITING",
    "color": "#3498db",
    "title": "Blinatumomab Ph-neg ALL elderly [P3]",
    "conditions": [
      "Newly Diagnosed Philadelphia (Ph)-Negative B-cell Precursor Acute Lymphoblastic Leukemia (ALL)"
    ]
  },
  {
    "lat": 48.14816,
    "lon": 17.10674,
    "facility": "Narodny onkologicky ustav",
    "city": "Bratislava",
    "country": "Slovakia",
    "nct": "NCT04994717",
    "status": "RECRUITING",
    "site_status": "RECRUITING",
    "color": "#3498db",
    "title": "Blinatumomab Ph-neg ALL elderly [P3]",
    "conditions": [
      "Newly Diagnosed Philadelphia (Ph)-Negative B-cell Precursor Acute Lymphoblastic Leukemia (ALL)"
    ]
  },
  {
    "lat": 48.14816,
    "lon": 17.10674,
    "facility": "Univerzitna nemocnica Bratislava, Nemocnica sv Cyrila a Metoda",
    "city": "Bratislava",
    "country": "Slovakia",
    "nct": "NCT04994717",
    "status": "RECRUITING",
    "site_status": "RECRUITING",
    "color": "#3498db",
    "title": "Blinatumomab Ph-neg ALL elderly [P3]",
    "conditions": [
      "Newly Diagnosed Philadelphia (Ph)-Negative B-cell Precursor Acute Lymphoblastic Leukemia (ALL)"
    ]
  },
  {
    "lat": 35.10168,
    "lon": 129.03004,
    "facility": "Dong-A University Hospital",
    "city": "Busan",
    "country": "South Korea",
    "nct": "NCT04994717",
    "status": "RECRUITING",
    "site_status": "RECRUITING",
    "color": "#3498db",
    "title": "Blinatumomab Ph-neg ALL elderly [P3]",
    "conditions": [
      "Newly Diagnosed Philadelphia (Ph)-Negative B-cell Precursor Acute Lymphoblastic Leukemia (ALL)"
    ]
  },
  {
    "lat": 35.10168,
    "lon": 129.03004,
    "facility": "Pusan National University Hospital",
    "city": "Busan",
    "country": "South Korea",
    "nct": "NCT04994717",
    "status": "RECRUITING",
    "site_status": "RECRUITING",
    "color": "#3498db",
    "title": "Blinatumomab Ph-neg ALL elderly [P3]",
    "conditions": [
      "Newly Diagnosed Philadelphia (Ph)-Negative B-cell Precursor Acute Lymphoblastic Leukemia (ALL)"
    ]
  },
  {
    "lat": 36.34913,
    "lon": 127.38493,
    "facility": "Chungnam National University Hospital",
    "city": "Daejeon",
    "country": "South Korea",
    "nct": "NCT04994717",
    "status": "RECRUITING",
    "site_status": "RECRUITING",
    "color": "#3498db",
    "title": "Blinatumomab Ph-neg ALL elderly [P3]",
    "conditions": [
      "Newly Diagnosed Philadelphia (Ph)-Negative B-cell Precursor Acute Lymphoblastic Leukemia (ALL)"
    ]
  },
  {
    "lat": 35.06125,
    "lon": 126.98746,
    "facility": "Chonnam National University Hwasun Hospital",
    "city": "Hwasun",
    "country": "South Korea",
    "nct": "NCT04994717",
    "status": "RECRUITING",
    "site_status": "RECRUITING",
    "color": "#3498db",
    "title": "Blinatumomab Ph-neg ALL elderly [P3]",
    "conditions": [
      "Newly Diagnosed Philadelphia (Ph)-Negative B-cell Precursor Acute Lymphoblastic Leukemia (ALL)"
    ]
  },
  {
    "lat": 37.566,
    "lon": 126.9784,
    "facility": "Seoul National University Hospital",
    "city": "Seoul",
    "country": "South Korea",
    "nct": "NCT04994717",
    "status": "RECRUITING",
    "site_status": "RECRUITING",
    "color": "#3498db",
    "title": "Blinatumomab Ph-neg ALL elderly [P3]",
    "conditions": [
      "Newly Diagnosed Philadelphia (Ph)-Negative B-cell Precursor Acute Lymphoblastic Leukemia (ALL)"
    ]
  },
  {
    "lat": 37.566,
    "lon": 126.9784,
    "facility": "Severance Hospital Yonsei University Health System",
    "city": "Seoul",
    "country": "South Korea",
    "nct": "NCT04994717",
    "status": "RECRUITING",
    "site_status": "RECRUITING",
    "color": "#3498db",
    "title": "Blinatumomab Ph-neg ALL elderly [P3]",
    "conditions": [
      "Newly Diagnosed Philadelphia (Ph)-Negative B-cell Precursor Acute Lymphoblastic Leukemia (ALL)"
    ]
  },
  {
    "lat": 37.566,
    "lon": 126.9784,
    "facility": "The Catholic University of Korea Seoul St Marys Hospital",
    "city": "Seoul",
    "country": "South Korea",
    "nct": "NCT04994717",
    "status": "RECRUITING",
    "site_status": "RECRUITING",
    "color": "#3498db",
    "title": "Blinatumomab Ph-neg ALL elderly [P3]",
    "conditions": [
      "Newly Diagnosed Philadelphia (Ph)-Negative B-cell Precursor Acute Lymphoblastic Leukemia (ALL)"
    ]
  },
  {
    "lat": 37.89155,
    "lon": -4.77275,
    "facility": "Hospital Universitario Reina Sofia",
    "city": "C\u00f3rdoba",
    "state": "Andalusia",
    "country": "Spain",
    "nct": "NCT04994717",
    "status": "RECRUITING",
    "site_status": "RECRUITING",
    "color": "#3498db",
    "title": "Blinatumomab Ph-neg ALL elderly [P3]",
    "conditions": [
      "Newly Diagnosed Philadelphia (Ph)-Negative B-cell Precursor Acute Lymphoblastic Leukemia (ALL)"
    ]
  },
  {
    "lat": 37.38283,
    "lon": -5.97317,
    "facility": "Hospital Universitario Virgen del Rocio",
    "city": "Seville",
    "state": "Andalusia",
    "country": "Spain",
    "nct": "NCT04994717",
    "status": "TERMINATED",
    "site_status": "TERMINATED",
    "color": "#3498db",
    "title": "Blinatumomab Ph-neg ALL elderly [P3]",
    "conditions": [
      "Newly Diagnosed Philadelphia (Ph)-Negative B-cell Precursor Acute Lymphoblastic Leukemia (ALL)"
    ]
  },
  {
    "lat": 43.46589,
    "lon": -3.80493,
    "facility": "Hospital Universitario Marques de Valdecilla",
    "city": "Santander",
    "state": "Cantabria",
    "country": "Spain",
    "nct": "NCT04994717",
    "status": "RECRUITING",
    "site_status": "RECRUITING",
    "color": "#3498db",
    "title": "Blinatumomab Ph-neg ALL elderly [P3]",
    "conditions": [
      "Newly Diagnosed Philadelphia (Ph)-Negative B-cell Precursor Acute Lymphoblastic Leukemia (ALL)"
    ]
  },
  {
    "lat": 40.96882,
    "lon": -5.66388,
    "facility": "Complejo Asistencial Universitario de Salamanca Hospital Universitario de Salamanca",
    "city": "Salamanca",
    "state": "Castille and Le\u00f3n",
    "country": "Spain",
    "nct": "NCT04994717",
    "status": "RECRUITING",
    "site_status": "RECRUITING",
    "color": "#3498db",
    "title": "Blinatumomab Ph-neg ALL elderly [P3]",
    "conditions": [
      "Newly Diagnosed Philadelphia (Ph)-Negative B-cell Precursor Acute Lymphoblastic Leukemia (ALL)"
    ]
  },
  {
    "lat": 41.45004,
    "lon": 2.24741,
    "facility": "Institut Catala d Oncologia Badalona Hospital Universitari Germans Trias i Pujol",
    "city": "Badalona",
    "state": "Catalonia",
    "country": "Spain",
    "nct": "NCT04994717",
    "status": "RECRUITING",
    "site_status": "RECRUITING",
    "color": "#3498db",
    "title": "Blinatumomab Ph-neg ALL elderly [P3]",
    "conditions": [
      "Newly Diagnosed Philadelphia (Ph)-Negative B-cell Precursor Acute Lymphoblastic Leukemia (ALL)"
    ]
  },
  {
    "lat": 41.38879,
    "lon": 2.15899,
    "facility": "Hospital Universitari Vall d Hebron",
    "city": "Barcelona",
    "state": "Catalonia",
    "country": "Spain",
    "nct": "NCT04994717",
    "status": "RECRUITING",
    "site_status": "RECRUITING",
    "color": "#3498db",
    "title": "Blinatumomab Ph-neg ALL elderly [P3]",
    "conditions": [
      "Newly Diagnosed Philadelphia (Ph)-Negative B-cell Precursor Acute Lymphoblastic Leukemia (ALL)"
    ]
  },
  {
    "lat": 41.35967,
    "lon": 2.10028,
    "facility": "Institut Catala d Oncologia Hospitalet Hospital Duran i Reynals",
    "city": "L'Hospitalet de Llobregat",
    "state": "Catalonia",
    "country": "Spain",
    "nct": "NCT04994717",
    "status": "RECRUITING",
    "site_status": "RECRUITING",
    "color": "#3498db",
    "title": "Blinatumomab Ph-neg ALL elderly [P3]",
    "conditions": [
      "Newly Diagnosed Philadelphia (Ph)-Negative B-cell Precursor Acute Lymphoblastic Leukemia (ALL)"
    ]
  },
  {
    "lat": 39.47391,
    "lon": -0.37966,
    "facility": "Hospital Universitari i Politecnic La Fe",
    "city": "Valencia",
    "state": "Valencia",
    "country": "Spain",
    "nct": "NCT04994717",
    "status": "RECRUITING",
    "site_status": "RECRUITING",
    "color": "#3498db",
    "title": "Blinatumomab Ph-neg ALL elderly [P3]",
    "conditions": [
      "Newly Diagnosed Philadelphia (Ph)-Negative B-cell Precursor Acute Lymphoblastic Leukemia (ALL)"
    ]
  },
  {
    "lat": 40.4165,
    "lon": -3.70256,
    "facility": "Hospital Universitario 12 de Octubre",
    "city": "Madrid",
    "country": "Spain",
    "nct": "NCT04994717",
    "status": "RECRUITING",
    "site_status": "RECRUITING",
    "color": "#3498db",
    "title": "Blinatumomab Ph-neg ALL elderly [P3]",
    "conditions": [
      "Newly Diagnosed Philadelphia (Ph)-Negative B-cell Precursor Acute Lymphoblastic Leukemia (ALL)"
    ]
  },
  {
    "lat": 57.70716,
    "lon": 11.96679,
    "facility": "Sahlgrenska Universitetssjukhuset",
    "city": "Gothenburg",
    "country": "Sweden",
    "nct": "NCT04994717",
    "status": "RECRUITING",
    "site_status": "RECRUITING",
    "color": "#3498db",
    "title": "Blinatumomab Ph-neg ALL elderly [P3]",
    "conditions": [
      "Newly Diagnosed Philadelphia (Ph)-Negative B-cell Precursor Acute Lymphoblastic Leukemia (ALL)"
    ]
  },
  {
    "lat": 46.94809,
    "lon": 7.44744,
    "facility": "Inselspital Bern",
    "city": "Bern",
    "country": "Switzerland",
    "nct": "NCT04994717",
    "status": "ACTIVE_NOT_RECRUITING",
    "site_status": "ACTIVE_NOT_RECRUITING",
    "color": "#3498db",
    "title": "Blinatumomab Ph-neg ALL elderly [P3]",
    "conditions": [
      "Newly Diagnosed Philadelphia (Ph)-Negative B-cell Precursor Acute Lymphoblastic Leukemia (ALL)"
    ]
  },
  {
    "lat": 24.1469,
    "lon": 120.6839,
    "facility": "China Medical University Hospital",
    "city": "Taichung",
    "country": "Taiwan",
    "nct": "NCT04994717",
    "status": "RECRUITING",
    "site_status": "RECRUITING",
    "color": "#3498db",
    "title": "Blinatumomab Ph-neg ALL elderly [P3]",
    "conditions": [
      "Newly Diagnosed Philadelphia (Ph)-Negative B-cell Precursor Acute Lymphoblastic Leukemia (ALL)"
    ]
  },
  {
    "lat": 24.1469,
    "lon": 120.6839,
    "facility": "Taichung Veterans General Hospital",
    "city": "Taichung",
    "country": "Taiwan",
    "nct": "NCT04994717",
    "status": "RECRUITING",
    "site_status": "RECRUITING",
    "color": "#3498db",
    "title": "Blinatumomab Ph-neg ALL elderly [P3]",
    "conditions": [
      "Newly Diagnosed Philadelphia (Ph)-Negative B-cell Precursor Acute Lymphoblastic Leukemia (ALL)"
    ]
  },
  {
    "lat": 22.99083,
    "lon": 120.21333,
    "facility": "National Cheng Kung University Hospital",
    "city": "Tainan",
    "country": "Taiwan",
    "nct": "NCT04994717",
    "status": "RECRUITING",
    "site_status": "RECRUITING",
    "color": "#3498db",
    "title": "Blinatumomab Ph-neg ALL elderly [P3]",
    "conditions": [
      "Newly Diagnosed Philadelphia (Ph)-Negative B-cell Precursor Acute Lymphoblastic Leukemia (ALL)"
    ]
  },
  {
    "lat": 25.05306,
    "lon": 121.52639,
    "facility": "National Taiwan University Hospital",
    "city": "Taipei",
    "country": "Taiwan",
    "nct": "NCT04994717",
    "status": "RECRUITING",
    "site_status": "RECRUITING",
    "color": "#3498db",
    "title": "Blinatumomab Ph-neg ALL elderly [P3]",
    "conditions": [
      "Newly Diagnosed Philadelphia (Ph)-Negative B-cell Precursor Acute Lymphoblastic Leukemia (ALL)"
    ]
  },
  {
    "lat": 24.9896,
    "lon": 121.3187,
    "facility": "Linkou Chang Gung Memorial Hospital of Chang Gung Medical Foundation",
    "city": "Taoyuan District",
    "country": "Taiwan",
    "nct": "NCT04994717",
    "status": "RECRUITING",
    "site_status": "RECRUITING",
    "color": "#3498db",
    "title": "Blinatumomab Ph-neg ALL elderly [P3]",
    "conditions": [
      "Newly Diagnosed Philadelphia (Ph)-Negative B-cell Precursor Acute Lymphoblastic Leukemia (ALL)"
    ]
  },
  {
    "lat": 39.91987,
    "lon": 32.85427,
    "facility": "Hacettepe Universitesi Tip Fakultesi Hastanesi",
    "city": "Ankara",
    "country": "Turkey (T\u00fcrkiye)",
    "nct": "NCT04994717",
    "status": "RECRUITING",
    "site_status": "RECRUITING",
    "color": "#3498db",
    "title": "Blinatumomab Ph-neg ALL elderly [P3]",
    "conditions": [
      "Newly Diagnosed Philadelphia (Ph)-Negative B-cell Precursor Acute Lymphoblastic Leukemia (ALL)"
    ]
  },
  {
    "lat": 39.91987,
    "lon": 32.85427,
    "facility": "Ankara Bilkent Sehir Hastanesi",
    "city": "Ankara",
    "country": "Turkey (T\u00fcrkiye)",
    "nct": "NCT04994717",
    "status": "RECRUITING",
    "site_status": "RECRUITING",
    "color": "#3498db",
    "title": "Blinatumomab Ph-neg ALL elderly [P3]",
    "conditions": [
      "Newly Diagnosed Philadelphia (Ph)-Negative B-cell Precursor Acute Lymphoblastic Leukemia (ALL)"
    ]
  },
  {
    "lat": 36.90812,
    "lon": 30.69556,
    "facility": "Memorial Antalya Hastanesi",
    "city": "Antalya",
    "country": "Turkey (T\u00fcrkiye)",
    "nct": "NCT04994717",
    "status": "RECRUITING",
    "site_status": "RECRUITING",
    "color": "#3498db",
    "title": "Blinatumomab Ph-neg ALL elderly [P3]",
    "conditions": [
      "Newly Diagnosed Philadelphia (Ph)-Negative B-cell Precursor Acute Lymphoblastic Leukemia (ALL)"
    ]
  },
  {
    "lat": 41.01384,
    "lon": 28.94966,
    "facility": "Bagcilar Medipol Mega Universite Hastanesi",
    "city": "Istanbul",
    "country": "Turkey (T\u00fcrkiye)",
    "nct": "NCT04994717",
    "status": "RECRUITING",
    "site_status": "RECRUITING",
    "color": "#3498db",
    "title": "Blinatumomab Ph-neg ALL elderly [P3]",
    "conditions": [
      "Newly Diagnosed Philadelphia (Ph)-Negative B-cell Precursor Acute Lymphoblastic Leukemia (ALL)"
    ]
  },
  {
    "lat": 38.41273,
    "lon": 27.13838,
    "facility": "Dokuz Eylul Universitesi Tip Fakultesi Hastanesi",
    "city": "Izmir",
    "country": "Turkey (T\u00fcrkiye)",
    "nct": "NCT04994717",
    "status": "RECRUITING",
    "site_status": "RECRUITING",
    "color": "#3498db",
    "title": "Blinatumomab Ph-neg ALL elderly [P3]",
    "conditions": [
      "Newly Diagnosed Philadelphia (Ph)-Negative B-cell Precursor Acute Lymphoblastic Leukemia (ALL)"
    ]
  },
  {
    "lat": 41.27976,
    "lon": 36.3361,
    "facility": "Ondokuz Mayis Universitesi Tip Fakultesi Hastanesi",
    "city": "Samsun",
    "country": "Turkey (T\u00fcrkiye)",
    "nct": "NCT04994717",
    "status": "RECRUITING",
    "site_status": "RECRUITING",
    "color": "#3498db",
    "title": "Blinatumomab Ph-neg ALL elderly [P3]",
    "conditions": [
      "Newly Diagnosed Philadelphia (Ph)-Negative B-cell Precursor Acute Lymphoblastic Leukemia (ALL)"
    ]
  },
  {
    "lat": 51.50853,
    "lon": -0.12574,
    "facility": "University College London",
    "city": "London",
    "country": "United Kingdom",
    "nct": "NCT04994717",
    "status": "COMPLETED",
    "site_status": "COMPLETED",
    "color": "#3498db",
    "title": "Blinatumomab Ph-neg ALL elderly [P3]",
    "conditions": [
      "Newly Diagnosed Philadelphia (Ph)-Negative B-cell Precursor Acute Lymphoblastic Leukemia (ALL)"
    ]
  },
  {
    "lat": 51.50853,
    "lon": -0.12574,
    "facility": "Kings College Hospital",
    "city": "London",
    "country": "United Kingdom",
    "nct": "NCT04994717",
    "status": "RECRUITING",
    "site_status": "RECRUITING",
    "color": "#3498db",
    "title": "Blinatumomab Ph-neg ALL elderly [P3]",
    "conditions": [
      "Newly Diagnosed Philadelphia (Ph)-Negative B-cell Precursor Acute Lymphoblastic Leukemia (ALL)"
    ]
  },
  {
    "lat": 31.86389,
    "lon": 117.28083,
    "facility": "The Second Hospital of Anhui Medical University",
    "city": "Hefei",
    "state": "Anhui",
    "country": "China",
    "nct": "NCT06054113",
    "status": "ACTIVE_NOT_RECRUITING",
    "site_status": "ACTIVE_NOT_RECRUITING",
    "color": "#3498db",
    "title": "Blinatumomab Pediatric R/R ALL [P2]",
    "conditions": [
      "B Precursor Acute Lymphoblastic Leukemia",
      "Relapsed/Refractory B Precursor Acute Lymphoblastic Leukemia"
    ]
  },
  {
    "lat": 29.56026,
    "lon": 106.55771,
    "facility": "Childrens Hospital of Chongqing Medical University",
    "city": "Chongqing",
    "state": "Chongqing Municipality",
    "country": "China",
    "nct": "NCT06054113",
    "status": "ACTIVE_NOT_RECRUITING",
    "site_status": "ACTIVE_NOT_RECRUITING",
    "color": "#3498db",
    "title": "Blinatumomab Pediatric R/R ALL [P2]",
    "conditions": [
      "B Precursor Acute Lymphoblastic Leukemia",
      "Relapsed/Refractory B Precursor Acute Lymphoblastic Leukemia"
    ]
  },
  {
    "lat": 23.11667,
    "lon": 113.25,
    "facility": "Zhujiang Hospital of Southern Medical University",
    "city": "Guangzhou",
    "state": "Guangdong",
    "country": "China",
    "nct": "NCT06054113",
    "status": "ACTIVE_NOT_RECRUITING",
    "site_status": "ACTIVE_NOT_RECRUITING",
    "color": "#3498db",
    "title": "Blinatumomab Pediatric R/R ALL [P2]",
    "conditions": [
      "B Precursor Acute Lymphoblastic Leukemia",
      "Relapsed/Refractory B Precursor Acute Lymphoblastic Leukemia"
    ]
  },
  {
    "lat": 30.58333,
    "lon": 114.26667,
    "facility": "Wuhan Childrens Hospital",
    "city": "Wuhan",
    "state": "Hubei",
    "country": "China",
    "nct": "NCT06054113",
    "status": "ACTIVE_NOT_RECRUITING",
    "site_status": "ACTIVE_NOT_RECRUITING",
    "color": "#3498db",
    "title": "Blinatumomab Pediatric R/R ALL [P2]",
    "conditions": [
      "B Precursor Acute Lymphoblastic Leukemia",
      "Relapsed/Refractory B Precursor Acute Lymphoblastic Leukemia"
    ]
  },
  {
    "lat": 31.30408,
    "lon": 120.59538,
    "facility": "Children's Hospital of Soochow University",
    "city": "Suzhou",
    "state": "Jiangsu",
    "country": "China",
    "nct": "NCT06054113",
    "status": "ACTIVE_NOT_RECRUITING",
    "site_status": "ACTIVE_NOT_RECRUITING",
    "color": "#3498db",
    "title": "Blinatumomab Pediatric R/R ALL [P2]",
    "conditions": [
      "B Precursor Acute Lymphoblastic Leukemia",
      "Relapsed/Refractory B Precursor Acute Lymphoblastic Leukemia"
    ]
  },
  {
    "lat": 31.22222,
    "lon": 121.45806,
    "facility": "Shanghai Children's Medical Center",
    "city": "Shanghai",
    "state": "Shanghai Municipality",
    "country": "China",
    "nct": "NCT06054113",
    "status": "ACTIVE_NOT_RECRUITING",
    "site_status": "ACTIVE_NOT_RECRUITING",
    "color": "#3498db",
    "title": "Blinatumomab Pediatric R/R ALL [P2]",
    "conditions": [
      "B Precursor Acute Lymphoblastic Leukemia",
      "Relapsed/Refractory B Precursor Acute Lymphoblastic Leukemia"
    ]
  },
  {
    "lat": 39.14222,
    "lon": 117.17667,
    "facility": "Institute of Hematology & Blood Diseases Hospital, Chinese Academy of Medical Sciences",
    "city": "Tianjin",
    "state": "Tianjin Municipality",
    "country": "China",
    "nct": "NCT06054113",
    "status": "ACTIVE_NOT_RECRUITING",
    "site_status": "ACTIVE_NOT_RECRUITING",
    "color": "#3498db",
    "title": "Blinatumomab Pediatric R/R ALL [P2]",
    "conditions": [
      "B Precursor Acute Lymphoblastic Leukemia",
      "Relapsed/Refractory B Precursor Acute Lymphoblastic Leukemia"
    ]
  },
  {
    "lat": 33.50921,
    "lon": -111.89903,
    "facility": "HonorHealth Research and Innovation Institute",
    "city": "Scottsdale",
    "state": "Arizona",
    "country": "United States",
    "nct": "NCT06570798",
    "status": "RECRUITING",
    "site_status": "RECRUITING",
    "color": "#3498db",
    "title": "Blinatumomab Autoimmune (SLE+RA) [P2]",
    "conditions": [
      "Systemic Lupus Erythematosus",
      "Active Refractory Rheumatoid Arthritis"
    ]
  },
  {
    "lat": 39.72943,
    "lon": -104.83192,
    "facility": "University of Colorado",
    "city": "Aurora",
    "state": "Colorado",
    "country": "United States",
    "nct": "NCT06570798",
    "status": "RECRUITING",
    "site_status": "RECRUITING",
    "color": "#3498db",
    "title": "Blinatumomab Autoimmune (SLE+RA) [P2]",
    "conditions": [
      "Systemic Lupus Erythematosus",
      "Active Refractory Rheumatoid Arthritis"
    ]
  },
  {
    "lat": 25.8576,
    "lon": -80.27811,
    "facility": "Vida Research Center",
    "city": "Hialeah",
    "state": "Florida",
    "country": "United States",
    "nct": "NCT06570798",
    "status": "TERMINATED",
    "site_status": "TERMINATED",
    "color": "#3498db",
    "title": "Blinatumomab Autoimmune (SLE+RA) [P2]",
    "conditions": [
      "Systemic Lupus Erythematosus",
      "Active Refractory Rheumatoid Arthritis"
    ]
  },
  {
    "lat": 25.46872,
    "lon": -80.47756,
    "facility": "Homestead Associates In Research Inc",
    "city": "Homestead",
    "state": "Florida",
    "country": "United States",
    "nct": "NCT06570798",
    "status": "TERMINATED",
    "site_status": "TERMINATED",
    "color": "#3498db",
    "title": "Blinatumomab Autoimmune (SLE+RA) [P2]",
    "conditions": [
      "Systemic Lupus Erythematosus",
      "Active Refractory Rheumatoid Arthritis"
    ]
  },
  {
    "lat": 25.77427,
    "lon": -80.19366,
    "facility": "Vitaly Clinical Research",
    "city": "Miami",
    "state": "Florida",
    "country": "United States",
    "nct": "NCT06570798",
    "status": "TERMINATED",
    "site_status": "TERMINATED",
    "color": "#3498db",
    "title": "Blinatumomab Autoimmune (SLE+RA) [P2]",
    "conditions": [
      "Systemic Lupus Erythematosus",
      "Active Refractory Rheumatoid Arthritis"
    ]
  },
  {
    "lat": 29.95465,
    "lon": -90.07507,
    "facility": "University Medical Center New Orleans",
    "city": "New Orleans",
    "state": "Louisiana",
    "country": "United States",
    "nct": "NCT06570798",
    "status": "RECRUITING",
    "site_status": "RECRUITING",
    "color": "#3498db",
    "title": "Blinatumomab Autoimmune (SLE+RA) [P2]",
    "conditions": [
      "Systemic Lupus Erythematosus",
      "Active Refractory Rheumatoid Arthritis"
    ]
  },
  {
    "lat": 44.02163,
    "lon": -92.4699,
    "facility": "Mayo Clinic",
    "city": "Rochester",
    "state": "Minnesota",
    "country": "United States",
    "nct": "NCT06570798",
    "status": "RECRUITING",
    "site_status": "RECRUITING",
    "color": "#3498db",
    "title": "Blinatumomab Autoimmune (SLE+RA) [P2]",
    "conditions": [
      "Systemic Lupus Erythematosus",
      "Active Refractory Rheumatoid Arthritis"
    ]
  },
  {
    "lat": 40.80066,
    "lon": -73.72846,
    "facility": "Northwell Health",
    "city": "Great Neck",
    "state": "New York",
    "country": "United States",
    "nct": "NCT06570798",
    "status": "RECRUITING",
    "site_status": "RECRUITING",
    "color": "#3498db",
    "title": "Blinatumomab Autoimmune (SLE+RA) [P2]",
    "conditions": [
      "Systemic Lupus Erythematosus",
      "Active Refractory Rheumatoid Arthritis"
    ]
  },
  {
    "lat": 40.71427,
    "lon": -74.00597,
    "facility": "Columbia University Medical Center",
    "city": "New York",
    "state": "New York",
    "country": "United States",
    "nct": "NCT06570798",
    "status": "RECRUITING",
    "site_status": "RECRUITING",
    "color": "#3498db",
    "title": "Blinatumomab Autoimmune (SLE+RA) [P2]",
    "conditions": [
      "Systemic Lupus Erythematosus",
      "Active Refractory Rheumatoid Arthritis"
    ]
  },
  {
    "lat": 41.4995,
    "lon": -81.69541,
    "facility": "MetroHealth Medical Center",
    "city": "Cleveland",
    "state": "Ohio",
    "country": "United States",
    "nct": "NCT06570798",
    "status": "RECRUITING",
    "site_status": "RECRUITING",
    "color": "#3498db",
    "title": "Blinatumomab Autoimmune (SLE+RA) [P2]",
    "conditions": [
      "Systemic Lupus Erythematosus",
      "Active Refractory Rheumatoid Arthritis"
    ]
  },
  {
    "lat": 29.76328,
    "lon": -95.36327,
    "facility": "Prolato Clinical Research Center",
    "city": "Houston",
    "state": "Texas",
    "country": "United States",
    "nct": "NCT06570798",
    "status": "RECRUITING",
    "site_status": "RECRUITING",
    "color": "#3498db",
    "title": "Blinatumomab Autoimmune (SLE+RA) [P2]",
    "conditions": [
      "Systemic Lupus Erythematosus",
      "Active Refractory Rheumatoid Arthritis"
    ]
  },
  {
    "lat": -31.95224,
    "lon": 115.8614,
    "facility": "Linear Clinical Research Limited",
    "city": "Perth",
    "state": "Western Australia",
    "country": "Australia",
    "nct": "NCT06570798",
    "status": "RECRUITING",
    "site_status": "RECRUITING",
    "color": "#3498db",
    "title": "Blinatumomab Autoimmune (SLE+RA) [P2]",
    "conditions": [
      "Systemic Lupus Erythematosus",
      "Active Refractory Rheumatoid Arthritis"
    ]
  },
  {
    "lat": 50.85045,
    "lon": 4.34878,
    "facility": "Cliniques Universtaire Saint Luc Universite Catholique de Louvain",
    "city": "Brussels",
    "country": "Belgium",
    "nct": "NCT06570798",
    "status": "RECRUITING",
    "site_status": "RECRUITING",
    "color": "#3498db",
    "title": "Blinatumomab Autoimmune (SLE+RA) [P2]",
    "conditions": [
      "Systemic Lupus Erythematosus",
      "Active Refractory Rheumatoid Arthritis"
    ]
  },
  {
    "lat": 51.05,
    "lon": 3.71667,
    "facility": "Universitair Ziekenhuis Gent",
    "city": "Ghent",
    "country": "Belgium",
    "nct": "NCT06570798",
    "status": "RECRUITING",
    "site_status": "RECRUITING",
    "color": "#3498db",
    "title": "Blinatumomab Autoimmune (SLE+RA) [P2]",
    "conditions": [
      "Systemic Lupus Erythematosus",
      "Active Refractory Rheumatoid Arthritis"
    ]
  },
  {
    "lat": 50.87959,
    "lon": 4.70093,
    "facility": "Universitair Ziekenhuis Leuven - Campus Gasthuisberg",
    "city": "Leuven",
    "country": "Belgium",
    "nct": "NCT06570798",
    "status": "RECRUITING",
    "site_status": "RECRUITING",
    "color": "#3498db",
    "title": "Blinatumomab Autoimmune (SLE+RA) [P2]",
    "conditions": [
      "Systemic Lupus Erythematosus",
      "Active Refractory Rheumatoid Arthritis"
    ]
  },
  {
    "lat": 50.63373,
    "lon": 5.56749,
    "facility": "Centre Hospitalier Universitaire de Liege - Sart Tilman",
    "city": "Li\u00e8ge",
    "country": "Belgium",
    "nct": "NCT06570798",
    "status": "RECRUITING",
    "site_status": "RECRUITING",
    "color": "#3498db",
    "title": "Blinatumomab Autoimmune (SLE+RA) [P2]",
    "conditions": [
      "Systemic Lupus Erythematosus",
      "Active Refractory Rheumatoid Arthritis"
    ]
  },
  {
    "lat": 48.81471,
    "lon": 2.36073,
    "facility": "H\u00f4pitaux Universitaires Paris Sud - H\u00f4pital Bic\u00eatre",
    "city": "Le Kremlin-Bic\u00eatre",
    "country": "France",
    "nct": "NCT06570798",
    "status": "RECRUITING",
    "site_status": "RECRUITING",
    "color": "#3498db",
    "title": "Blinatumomab Autoimmune (SLE+RA) [P2]",
    "conditions": [
      "Systemic Lupus Erythematosus",
      "Active Refractory Rheumatoid Arthritis"
    ]
  },
  {
    "lat": 50.63391,
    "lon": 3.05512,
    "facility": "Centre Hospitalier Regional Universitaire de Lille - Hopital Claude Huriez",
    "city": "Lille",
    "country": "France",
    "nct": "NCT06570798",
    "status": "RECRUITING",
    "site_status": "RECRUITING",
    "color": "#3498db",
    "title": "Blinatumomab Autoimmune (SLE+RA) [P2]",
    "conditions": [
      "Systemic Lupus Erythematosus",
      "Active Refractory Rheumatoid Arthritis"
    ]
  },
  {
    "lat": 45.74906,
    "lon": 4.84789,
    "facility": "Centre Hospitalier Universitaire de Lyon- Hopital Edouard Herriot",
    "city": "Lyon",
    "country": "France",
    "nct": "NCT06570798",
    "status": "RECRUITING",
    "site_status": "RECRUITING",
    "color": "#3498db",
    "title": "Blinatumomab Autoimmune (SLE+RA) [P2]",
    "conditions": [
      "Systemic Lupus Erythematosus",
      "Active Refractory Rheumatoid Arthritis"
    ]
  },
  {
    "lat": 43.29695,
    "lon": 5.38107,
    "facility": "Hopital de la Conception",
    "city": "Marseille",
    "country": "France",
    "nct": "NCT06570798",
    "status": "RECRUITING",
    "site_status": "RECRUITING",
    "color": "#3498db",
    "title": "Blinatumomab Autoimmune (SLE+RA) [P2]",
    "conditions": [
      "Systemic Lupus Erythematosus",
      "Active Refractory Rheumatoid Arthritis"
    ]
  },
  {
    "lat": 48.85341,
    "lon": 2.3488,
    "facility": "Hopital Cochin",
    "city": "Paris",
    "country": "France",
    "nct": "NCT06570798",
    "status": "RECRUITING",
    "site_status": "RECRUITING",
    "color": "#3498db",
    "title": "Blinatumomab Autoimmune (SLE+RA) [P2]",
    "conditions": [
      "Systemic Lupus Erythematosus",
      "Active Refractory Rheumatoid Arthritis"
    ]
  },
  {
    "lat": 48.85341,
    "lon": 2.3488,
    "facility": "Hopital Bichat Claude Bernard",
    "city": "Paris",
    "country": "France",
    "nct": "NCT06570798",
    "status": "RECRUITING",
    "site_status": "RECRUITING",
    "color": "#3498db",
    "title": "Blinatumomab Autoimmune (SLE+RA) [P2]",
    "conditions": [
      "Systemic Lupus Erythematosus",
      "Active Refractory Rheumatoid Arthritis"
    ]
  },
  {
    "lat": 48.85341,
    "lon": 2.3488,
    "facility": "Hopital Europeen Georges Pompidou",
    "city": "Paris",
    "country": "France",
    "nct": "NCT06570798",
    "status": "RECRUITING",
    "site_status": "RECRUITING",
    "color": "#3498db",
    "title": "Blinatumomab Autoimmune (SLE+RA) [P2]",
    "conditions": [
      "Systemic Lupus Erythematosus",
      "Active Refractory Rheumatoid Arthritis"
    ]
  },
  {
    "lat": 48.58392,
    "lon": 7.74553,
    "facility": "Centre Hospitalier Universitaire de Strasbourg - Nouvel Hopital Civil",
    "city": "Strasbourg",
    "country": "France",
    "nct": "NCT06570798",
    "status": "RECRUITING",
    "site_status": "RECRUITING",
    "color": "#3498db",
    "title": "Blinatumomab Autoimmune (SLE+RA) [P2]",
    "conditions": [
      "Systemic Lupus Erythematosus",
      "Active Refractory Rheumatoid Arthritis"
    ]
  },
  {
    "lat": 48.58392,
    "lon": 7.74553,
    "facility": "Centre Hospitalier Universitaire de Strasbourg - Hopital de Hautepierre",
    "city": "Strasbourg",
    "country": "France",
    "nct": "NCT06570798",
    "status": "RECRUITING",
    "site_status": "RECRUITING",
    "color": "#3498db",
    "title": "Blinatumomab Autoimmune (SLE+RA) [P2]",
    "conditions": [
      "Systemic Lupus Erythematosus",
      "Active Refractory Rheumatoid Arthritis"
    ]
  },