[
  {
    "lat": 31.22222,
    "lon": 121.45806,
    "facility": "Huashan Hospital Affiliated to Fudan University",
    "city": "Shanghai",
    "state": "Shanghai Municipality",
    "country": "China",
    "nct": "NCT07215650",
    "status": "RECRUITING",
    "site_status": "RECRUITING",
    "color": "#9b59b6",
    "title": "Cizutamig gMG [P1]",
    "conditions": [
      "Generalized Myasthenia Gravis"
    ]
  },
  {
    "lat": -37.814,
    "lon": 144.96332,
    "facility": "Nucleus Network",
    "city": "Melbourne",
    "state": "Victoria",
    "country": "Australia",
    "nct": "NCT07236411",
    "status": "RECRUITING",
    "site_status": "RECRUITING",
    "color": "#9b59b6",
    "title": "Cizutamig Bioavailability [P1]",
    "conditions": [
      "Healthy Participants Study"
    ]
  },
  {
    "lat": -37.814,
    "lon": 144.96332,
    "facility": "Nucleus Network",
    "city": "Melbourne",
    "state": "Victoria",
    "country": "Australia",
    "nct": "NCT07408869",
    "status": "NOT_YET_RECRUITING",
    "site_status": "NOT_YET_RECRUITING",
    "color": "#9b59b6",
    "title": "Cizutamig IgE diseases [P1]",
    "conditions": [
      "IgE-Mediated Hypersensitivity",
      "IgE Mediated Food Allergy",
      "IgE-Mediated Cow Milk Allergy"
    ]
  },
  {
    "lat": 39.9075,
    "lon": 116.39723,
    "facility": "Chinese Academy of Medical Sciences and Peking Union Medical College Hospital",
    "city": "Beijing",
    "country": "China",
    "nct": "NCT07215663",
    "status": "RECRUITING",
    "site_status": "RECRUITING",
    "color": "#9b59b6",
    "title": "Cizutamig SLE [P1]",
    "conditions": [
      "Systemic Lupus Erythematosus (SLE)"
    ]
  },
  {
    "lat": 41.69143,
    "lon": 44.83412,
    "facility": "Candid Clinical Site",
    "city": "Tbilisi",
    "country": "Georgia",
    "nct": "NCT07052032",
    "status": "RECRUITING",
    "site_status": "RECRUITING",
    "color": "#9b59b6",
    "title": "CND261 RA [P1]",
    "conditions": [
      "Rheumatoid Arthritis"
    ]
  },
  {
    "lat": 47.00902,
    "lon": 28.85938,
    "facility": "Candid Clinical Site",
    "city": "Chisinau",
    "country": "Moldova",
    "nct": "NCT07052032",
    "status": "RECRUITING",
    "site_status": "RECRUITING",
    "color": "#9b59b6",
    "title": "CND261 RA [P1]",
    "conditions": [
      "Rheumatoid Arthritis"
    ]
  },
  {
    "lat": -36.84853,
    "lon": 174.76349,
    "facility": "Candid Clinical Site",
    "city": "Auckland",
    "country": "New Zealand",
    "nct": "NCT07052032",
    "status": "RECRUITING",
    "site_status": "RECRUITING",
    "color": "#9b59b6",
    "title": "CND261 RA [P1]",
    "conditions": [
      "Rheumatoid Arthritis"
    ]
  },
  {
    "lat": 44.43225,
    "lon": 26.10626,
    "facility": "Candid Clinical Site",
    "city": "Bucharest",
    "country": "Romania",
    "nct": "NCT07052032",
    "status": "RECRUITING",
    "site_status": "RECRUITING",
    "color": "#9b59b6",
    "title": "CND261 RA [P1]",
    "conditions": [
      "Rheumatoid Arthritis"
    ]
  },
  {
    "lat": 46.76667,
    "lon": 23.6,
    "facility": "Candid Clinical Site",
    "city": "Cluj-Napoca",
    "country": "Romania",
    "nct": "NCT07052032",
    "status": "RECRUITING",
    "site_status": "RECRUITING",
    "color": "#9b59b6",
    "title": "CND261 RA [P1]",
    "conditions": [
      "Rheumatoid Arthritis"
    ]
  },
  {
    "lat": 50.45466,
    "lon": 30.5238,
    "facility": "Candid Clinical Site",
    "city": "Kyiv",
    "country": "Ukraine",
    "nct": "NCT07052032",
    "status": "RECRUITING",
    "site_status": "RECRUITING",
    "color": "#9b59b6",
    "title": "CND261 RA [P1]",
    "conditions": [
      "Rheumatoid Arthritis"
    ]
  }
]