[
  {
    "lat": 33.01984,
    "lon": -96.69889,
    "facility": "Cullinan Investigative Site",
    "city": "Plano",
    "state": "Texas",
    "country": "United States",
    "nct": "NCT07041099",
    "status": "RECRUITING",
    "site_status": "RECRUITING",
    "color": "#e74c3c",
    "title": "CLN-978 Sj\u00f6gren's [P1]"
  },
  {
    "lat": 40.76078,
    "lon": -111.89105,
    "facility": "Cullinan Investigative Site",
    "city": "Salt Lake City",
    "state": "Utah",
    "country": "United States",
    "nct": "NCT07041099",
    "status": "RECRUITING",
    "site_status": "RECRUITING",
    "color": "#e74c3c",
    "title": "CLN-978 Sj\u00f6gren's [P1]"
  },
  {
    "lat": 49.59099,
    "lon": 11.00783,
    "facility": "Cullinan Investigative Site",
    "city": "Erlangen",
    "country": "Germany",
    "nct": "NCT07041099",
    "status": "RECRUITING",
    "site_status": "RECRUITING",
    "color": "#e74c3c",
    "title": "CLN-978 Sj\u00f6gren's [P1]"
  },
  {
    "lat": 33.4356,
    "lon": -112.3496,
    "facility": "Cullinan Investigative Site",
    "city": "Avondale",
    "state": "Arizona",
    "country": "United States",
    "nct": "NCT06613360",
    "status": "RECRUITING",
    "site_status": "RECRUITING",
    "color": "#e74c3c",
    "title": "CLN-978 SLE [P1]"
  },
  {
    "lat": 32.22174,
    "lon": -110.92648,
    "facility": "Cullinan Investigative Site",
    "city": "Tucson",
    "state": "Arizona",
    "country": "United States",
    "nct": "NCT06613360",
    "status": "RECRUITING",
    "site_status": "RECRUITING",
    "color": "#e74c3c",
    "title": "CLN-978 SLE [P1]"
  },
  {
    "lat": 28.53834,
    "lon": -81.37924,
    "facility": "Cullinan Investigative Site",
    "city": "Orlando",
    "state": "Florida",
    "country": "United States",
    "nct": "NCT06613360",
    "status": "RECRUITING",
    "site_status": "RECRUITING",
    "color": "#e74c3c",
    "title": "CLN-978 SLE [P1]"
  },
  {
    "lat": 41.66113,
    "lon": -91.53017,
    "facility": "Cullinan Investigative Site",
    "city": "Iowa City",
    "state": "Iowa",
    "country": "United States",
    "nct": "NCT06613360",
    "status": "RECRUITING",
    "site_status": "RECRUITING",
    "color": "#e74c3c",
    "title": "CLN-978 SLE [P1]"
  },
  {
    "lat": 40.71427,
    "lon": -74.00597,
    "facility": "Cullinan Investigative Site",
    "city": "New York",
    "state": "New York",
    "country": "United States",
    "nct": "NCT06613360",
    "status": "RECRUITING",
    "site_status": "RECRUITING",
    "color": "#e74c3c",
    "title": "CLN-978 SLE [P1]"
  },
  {
    "lat": 43.15478,
    "lon": -77.61556,
    "facility": "Cullinan Investigative Site",
    "city": "Rochester",
    "state": "New York",
    "country": "United States",
    "nct": "NCT06613360",
    "status": "RECRUITING",
    "site_status": "RECRUITING",
    "color": "#e74c3c",
    "title": "CLN-978 SLE [P1]"
  },
  {
    "lat": 35.14953,
    "lon": -90.04898,
    "facility": "Cullinan Investigative Site",
    "city": "Memphis",
    "state": "Tennessee",
    "country": "United States",
    "nct": "NCT06613360",
    "status": "RECRUITING",
    "site_status": "RECRUITING",
    "color": "#e74c3c",
    "title": "CLN-978 SLE [P1]"
  },
  {
    "lat": 33.01984,
    "lon": -96.69889,
    "facility": "Cullinan Investigative Site",
    "city": "Plano",
    "state": "Texas",
    "country": "United States",
    "nct": "NCT06613360",
    "status": "RECRUITING",
    "site_status": "RECRUITING",
    "color": "#e74c3c",
    "title": "CLN-978 SLE [P1]"
  },
  {
    "lat": 29.53773,
    "lon": -95.11826,
    "facility": "Cullinan Investigative Site",
    "city": "Webster",
    "state": "Texas",
    "country": "United States",
    "nct": "NCT06613360",
    "status": "RECRUITING",
    "site_status": "RECRUITING",
    "color": "#e74c3c",
    "title": "CLN-978 SLE [P1]"
  },
  {
    "lat": 40.76078,
    "lon": -111.89105,
    "facility": "Cullinan Investigative Site",
    "city": "Salt Lake City",
    "state": "Utah",
    "country": "United States",
    "nct": "NCT06613360",
    "status": "RECRUITING",
    "site_status": "RECRUITING",
    "color": "#e74c3c",
    "title": "CLN-978 SLE [P1]"
  },
  {
    "lat": -37.78333,
    "lon": 144.95,
    "facility": "Cullinan Investigative Site",
    "city": "Parkville",
    "state": "Victoria",
    "country": "Australia",
    "nct": "NCT06613360",
    "status": "RECRUITING",
    "site_status": "RECRUITING",
    "color": "#e74c3c",
    "title": "CLN-978 SLE [P1]"
  },
  {
    "lat": -31.97619,
    "lon": 115.90525,
    "facility": "Cullinan Investigative Site",
    "city": "Victoria Park",
    "country": "Australia",
    "nct": "NCT06613360",
    "status": "RECRUITING",
    "site_status": "RECRUITING",
    "color": "#e74c3c",
    "title": "CLN-978 SLE [P1]"
  },
  {
    "lat": 41.69143,
    "lon": 44.83412,
    "facility": "Arensia Research Clinic",
    "city": "Tbilisi",
    "country": "Georgia",
    "nct": "NCT06613360",
    "status": "RECRUITING",
    "site_status": "RECRUITING",
    "color": "#e74c3c",
    "title": "CLN-978 SLE [P1]"
  },
  {
    "lat": 47.00902,
    "lon": 28.85938,
    "facility": "Arensia Research Clinic",
    "city": "Chisinau",
    "country": "Moldova",
    "nct": "NCT06613360",
    "status": "RECRUITING",
    "site_status": "RECRUITING",
    "color": "#e74c3c",
    "title": "CLN-978 SLE [P1]"
  },
  {
    "lat": 33.52066,
    "lon": -86.80249,
    "facility": "University of Alabama at Birmingham",
    "city": "Birmingham",
    "state": "Alabama",
    "country": "United States",
    "nct": "NCT05879744",
    "status": "ACTIVE_NOT_RECRUITING",
    "site_status": "ACTIVE_NOT_RECRUITING",
    "color": "#e74c3c",
    "title": "CLN-978 B-NHL [P1]"
  },
  {
    "lat": 34.13945,
    "lon": -117.97729,
    "facility": "City of Hope",
    "city": "Duarte",
    "state": "California",
    "country": "United States",
    "nct": "NCT05879744",
    "status": "ACTIVE_NOT_RECRUITING",
    "site_status": "ACTIVE_NOT_RECRUITING",
    "color": "#e74c3c",
    "title": "CLN-978 B-NHL [P1]"
  },
  {
    "lat": 33.749,
    "lon": -84.38798,
    "facility": "Winship Cancer Institute at Emory University",
    "city": "Atlanta",
    "state": "Georgia",
    "country": "United States",
    "nct": "NCT05879744",
    "status": "ACTIVE_NOT_RECRUITING",
    "site_status": "ACTIVE_NOT_RECRUITING",
    "color": "#e74c3c",
    "title": "CLN-978 B-NHL [P1]"
  },
  {
    "lat": 42.35843,
    "lon": -71.05977,
    "facility": "Massachusetts General Hospital",
    "city": "Boston",
    "state": "Massachusetts",
    "country": "United States",
    "nct": "NCT05879744",
    "status": "ACTIVE_NOT_RECRUITING",
    "site_status": "ACTIVE_NOT_RECRUITING",
    "color": "#e74c3c",
    "title": "CLN-978 B-NHL [P1]"
  },
  {
    "lat": 40.88593,
    "lon": -74.04347,
    "facility": "Hackensack University Medical Center",
    "city": "Hackensack",
    "state": "New Jersey",
    "country": "United States",
    "nct": "NCT05879744",
    "status": "ACTIVE_NOT_RECRUITING",
    "site_status": "ACTIVE_NOT_RECRUITING",
    "color": "#e74c3c",
    "title": "CLN-978 B-NHL [P1]"
  },
  {
    "lat": 32.78306,
    "lon": -96.80667,
    "facility": "University of Texas Southwestern Medical Center",
    "city": "Dallas",
    "state": "Texas",
    "country": "United States",
    "nct": "NCT05879744",
    "status": "ACTIVE_NOT_RECRUITING",
    "site_status": "ACTIVE_NOT_RECRUITING",
    "color": "#e74c3c",
    "title": "CLN-978 B-NHL [P1]"
  },
  {
    "lat": 49.59099,
    "lon": 11.00783,
    "facility": "Cullinan Investigative Site",
    "city": "Erlangen",
    "country": "Germany",
    "nct": "NCT06994143",
    "status": "RECRUITING",
    "site_status": "RECRUITING",
    "color": "#e74c3c",
    "title": "CLN-978 RA [P1]"
  },
  {
    "lat": 41.89193,
    "lon": 12.51133,
    "facility": "Cullinan Investigative Site",
    "city": "Rome",
    "country": "Italy",
    "nct": "NCT06994143",
    "status": "RECRUITING",
    "site_status": "RECRUITING",
    "color": "#e74c3c",
    "title": "CLN-978 RA [P1]"
  }
]